%time,field.header.seq,field.header.stamp,field.header.frame_id,field.pose.position.x,field.pose.position.y,field.pose.position.z,field.pose.orientation.x,field.pose.orientation.y,field.pose.orientation.z,field.pose.orientation.w
1546561950944203321,0,1546561950943694113,world,0.00401514582336,0.0341987945139,0.0232044216245,0.0359873957932,0.00868856068701,-0.0062043950893,-0.99929523468
1546561950944376737,1,1546561950943772933,world,0.00401230063289,0.0342072285712,0.0232426710427,0.0357389450073,0.00869357679039,-0.00622373679653,-0.999304056168
1546561950954519228,2,1546561950954057223,world,0.00401009339839,0.034215118736,0.0232472904027,0.035795416683,0.00863694213331,-0.00624393671751,-0.999302387238
1546561950954563102,3,1546561950954142187,world,0.00401877984405,0.0342142619193,0.0232547391206,0.0356692522764,0.00933018047363,-0.00634753610939,-0.999300003052
1546561950963852562,4,1546561950963594694,world,0.0040197102353,0.0342241413891,0.0232532564551,0.0356638133526,0.00912778545171,-0.00628436682746,-0.999302506447
1546561950963908948,5,1546561950963669449,world,0.00401346711442,0.0342230908573,0.0232614167035,0.0355365090072,0.00950509496033,-0.00634622760117,-0.999303102493
1546561950974497957,6,1546561950974155509,world,0.00401115557179,0.0342317186296,0.0232736393809,0.0355012603104,0.00944709405303,-0.00632891990244,-0.999305009842
1546561950974553863,7,1546561950974202807,world,0.00401100656018,0.0342292040586,0.0232839919627,0.035408437252,0.00980762951076,-0.00643066270277,-0.999304175377
1546561950983939391,8,1546561950983647794,world,0.00401358352974,0.0342346951365,0.0232675001025,0.0354562029243,0.0100442012772,-0.00638779206201,-0.99930036068
1546561950983998018,9,1546561950983732342,world,0.00401094043627,0.0342313982546,0.0232642460614,0.0355346240103,0.00975130219012,-0.00639228802174,-0.999300479889
1546561950994414250,10,1546561950994102140,world,0.00400876905769,0.034227848053,0.0232549030334,0.0355755761266,0.00985967181623,-0.00647813593969,-0.999297380447
1546561950994496846,11,1546561950994148222,world,0.00400382746011,0.0342312119901,0.0232650749385,0.0355619750917,0.00969021301717,-0.00646132184193,-0.999299645424
1546561951003779297,12,1546561951003512437,world,0.004003837239,0.0342356339097,0.0232587214559,0.0356014296412,0.00932107586414,-0.00635843118653,-0.999302387238
1546561951003840132,13,1546561951003557495,world,0.00400503305718,0.0342346318066,0.0232616681606,0.0355596244335,0.00913404580206,-0.00627168174833,-0.999306201935
1546561951014070084,14,1546561951013844409,world,0.00397848105058,0.0341366492212,0.0231120921671,0.0369988940656,0.0070280698128,-0.00623634085059,-0.999271154404
1546561951014108837,15,1546561951013915036,world,0.00399563601241,0.0341758802533,0.0231617130339,0.0364934578538,0.00778009369969,-0.00618351250887,-0.999284505844
1546561951024444682,16,1546561951024177661,world,0.00400384375826,0.0341951362789,0.0231856182218,0.0361885279417,0.00888474844396,-0.00620901118964,-0.999286174774
1546561951024770809,17,1546561951024203455,world,0.00398243358359,0.0341148227453,0.0230786520988,0.0370843298733,0.00769475335255,-0.00623824819922,-0.999263048172
1546561951033704988,18,1546561951033498098,world,0.00399530399591,0.0341536775231,0.0231497175992,0.036504406482,0.0086861057207,-0.00630617653951,-0.999275922775
1546561951033936039,19,1546561951033542612,world,0.0040004150942,0.0341876856983,0.023184157908,0.0361167527735,0.00918215047568,-0.00635210797191,-0.9992852211
1546561951044022464,20,1546561951043808886,world,0.00400993227959,0.0342145971954,0.0232046637684,0.0359571501613,0.00992976594716,-0.00638584606349,-0.999283671379
1546561951044097923,21,1546561951043851992,world,0.00401122309268,0.0342191010714,0.0232157986611,0.0359498225152,0.00935990456492,-0.00631932867691,-0.999289870262
1546561951054471753,22,1546561951054154394,world,0.00401281565428,0.0342206284404,0.0232356227934,0.0356738902628,0.00939674582332,-0.00635454570875,-0.999299168587
1546561951054515115,23,1546561951054182204,world,0.004005135037,0.0342340134084,0.0232442151755,0.0356575325131,0.00858617573977,-0.00633907690644,-0.999307155609
1546561951063796254,24,1546561951063495184,world,0.00400787452236,0.0342347323895,0.0232427511364,0.035725299269,0.00912539660931,-0.00636600377038,-0.999299764633
1546561951063872322,25,1546561951063525522,world,0.00401395885274,0.0342343784869,0.0232401806861,0.0357059165835,0.00924381427467,-0.00635532941669,-0.999299407005
1546561951074011773,26,1546561951073720688,world,0.00398926995695,0.0341510288417,0.0230903383344,0.0369883961976,0.00777524430305,-0.00643854821101,-0.999264717102
1546561951074166404,27,1546561951073741681,world,0.0040059061721,0.0341782495379,0.0231439042836,0.036425575614,0.00859888456762,-0.0063562351279,-0.999279141426
1546561951084169017,28,1546561951083935694,world,0.00400309031829,0.0342000201344,0.0232027247548,0.0360113233328,0.00902400072664,-0.00645636254922,-0.999289870262
1546561951084234268,29,1546561951083955791,world,0.00401789788157,0.034209664911,0.0232203602791,0.0357941091061,0.00944704841822,-0.00632437784225,-0.999294519424
1546561951094422106,30,1546561951094166766,world,0.00401863642037,0.0342188663781,0.0232375916094,0.0356256179512,0.00927477516234,-0.00632061949,-0.999302268028
1546561951094465628,31,1546561951094192975,world,0.00400962075219,0.0342244952917,0.0232529044151,0.035544462502,0.00909358914942,-0.0063795261085,-0.999306440353
1546561951103681484,32,1546561951103448577,world,0.00400853343308,0.0342238657176,0.0232508927584,0.0355236418545,0.00916509702802,-0.006404355634,-0.999306321144
1546561951103741103,33,1546561951103469346,world,0.00401087524369,0.0342305339873,0.0232494808733,0.0354513153434,0.009192250669,-0.00638256967068,-0.999308824539
1546561951113946701,34,1546561951113702370,world,0.00401053205132,0.0342277809978,0.0232515968382,0.0355655141175,0.00906732212752,-0.00635288236663,-0.999306082726
1546561951113980719,35,1546561951113730339,world,0.00398387946188,0.0341433212161,0.0231142602861,0.0367916375399,0.00770675204694,-0.00636201398447,-0.999273061752
1546561951124163628,36,1546561951123951906,world,0.00399596430361,0.0341738164425,0.0231613181531,0.0364241711795,0.00842325296253,-0.00632471963763,-0.999280929565
1546561951124200270,37,1546561951123979779,world,0.00399647001177,0.0341933444142,0.0232152119279,0.0359337441623,0.00850322563201,-0.00627107126638,-0.999298334122
1546561951134372779,38,1546561951134197762,world,0.00399945117533,0.0342031270266,0.0232298783958,0.0358779355884,0.0088666761294,-0.00637246714905,-0.999296545982
1546561951134391211,39,1546561951134222371,world,0.00400825217366,0.0342061780393,0.0232334267348,0.0359255038202,0.00912166479975,-0.00630373833701,-0.999292969704
1546561951143664382,40,1546561951143444372,world,0.0040049534291,0.0342186763883,0.0232432577759,0.0357719324529,0.00901164673269,-0.00639831274748,-0.999298930168
1546561951143696864,41,1546561951143470869,world,0.00401353929192,0.0342267639935,0.0232355054468,0.0357304476202,0.00968376453966,-0.00635946774855,-0.999294400215
1546561951153892093,42,1546561951153676307,world,0.00401257304475,0.0342302061617,0.0232394896448,0.035633251071,0.00917452201247,-0.00629671057686,-0.999302983284
1546561951153914975,43,1546561951153704405,world,0.00400576787069,0.0342345908284,0.0232561361045,0.0355064049363,0.0087557816878,-0.00625244248658,-0.999311566353
1546561951164147134,44,1546561951163955061,world,0.00400416599587,0.0342323258519,0.0232595782727,0.0355010963976,0.00908931158483,-0.00629236735404,-0.999308586121
1546561951164200353,45,1546561951164035545,world,0.00401268480346,0.0342350639403,0.0232463087887,0.0356907173991,0.00898247770965,-0.00626656180248,-0.999302864075
1546561951173397200,46,1546561951173189606,world,0.00401409436017,0.0342338345945,0.0232426356524,0.0356809683144,0.00956036429852,-0.00628761295229,-0.999297738075
1546561951173507989,47,1546561951173216359,world,0.00401207152754,0.0342292748392,0.023253088817,0.0355290435255,0.00907679554075,-0.00626688124612,-0.999307870865
1546561951183687506,48,1546561951183483016,world,0.00401889672503,0.0342268496752,0.0232430752367,0.0356546081603,0.0097795734182,-0.00625901063904,-0.999296784401
1546561951183799991,49,1546561951183534123,world,0.00402422808111,0.034232608974,0.023250201717,0.0355438627303,0.00938140228391,-0.00614694878459,-0.99930524826
1546561951193925042,50,1546561951193753770,world,0.00402195798233,0.0342335402966,0.0232476219535,0.0355546697974,0.00898336898535,-0.0061705536209,-0.999308347702
1546561951194081785,51,1546561951193812909,world,0.00401188246906,0.0342378616333,0.0232380460948,0.0357641763985,0.00894616823643,-0.00630049500614,-0.99930036068
1546561951204225045,52,1546561951204049548,world,0.00401054369286,0.0342389009893,0.0232441220433,0.0356521122158,0.00930818449706,-0.00632123183459,-0.999300956726
1546561951204322105,53,1546561951204097871,world,0.0040065520443,0.0342299342155,0.0232405886054,0.0356550402939,0.00907084718347,-0.00632673781365,-0.999302983284
1546561951213499815,54,1546561951213324159,world,0.00400927523151,0.0342276059091,0.023245325312,0.0356448888779,0.00938316620886,-0.00633555557579,-0.999300479889
1546561951213576555,55,1546561951213367297,world,0.00400665635243,0.0342301130295,0.02325017564,0.035617839545,0.00941894762218,-0.00634030019864,-0.999301075935
1546561951223766953,56,1546561951223584576,world,0.00400615809485,0.034227091819,0.0232415366918,0.0357772558928,0.00937984976918,-0.00629663234577,-0.999295949936
1546561951223833804,57,1546561951223625026,world,0.00400125095621,0.0342190749943,0.0232519134879,0.0356379859149,0.00931908749044,-0.00633370829746,-0.999301314354
1546561951234046379,58,1546561951233836833,world,0.00400093244389,0.034217402339,0.0232619829476,0.0355567783117,0.00924346037209,-0.00635409122333,-0.999304771423
1546561951234074028,59,1546561951233889475,world,0.00400597648695,0.0342172160745,0.0232377275825,0.035710375756,0.0094861490652,-0.00636973278597,-0.99929690361
1546561951244412752,60,1546561951244174341,world,0.0040076803416,0.0342124775052,0.0232389364392,0.0356005616486,0.00953601673245,-0.00635890755802,-0.999300479889
1546561951244462483,61,1546561951244235880,world,0.00400533294305,0.0342228598893,0.0232505518943,0.035558078438,0.00955937989056,-0.00639081886038,-0.999301552773
1546561951253819401,62,1546561951253504027,world,0.00400775903836,0.0342284105718,0.0232411585748,0.035509403795,0.00918932352215,-0.00636455882341,-0.999306917191
1546561951253853899,63,1546561951253543420,world,0.00400816462934,0.0342382490635,0.0232603363693,0.0354028716683,0.00915291160345,-0.00639045890421,-0.999310851097
1546561951264105996,64,1546561951263825310,world,0.00400827685371,0.03423416242,0.0232606958598,0.035471316427,0.00863848719746,-0.006329766009,-0.999313354492
1546561951264177999,65,1546561951263900706,world,0.00400873180479,0.0342391654849,0.0232457108796,0.0355192907155,0.00893000327051,-0.00633393973112,-0.999309062958
1546561951274656282,66,1546561951274216389,world,0.00400479789823,0.0342322662473,0.0232419539243,0.0356315821409,0.00864217896014,-0.00641087815166,-0.999307155609
1546561951274745118,67,1546561951274268296,world,0.00400900887325,0.0342285484076,0.0232429504395,0.0356349274516,0.00906173698604,-0.00642465241253,-0.999303221703
1546561951283789734,68,1546561951283530330,world,0.0040153269656,0.0342303402722,0.0232472736388,0.0357361212373,0.00915711838752,-0.00633331108838,-0.999299287796
1546561951283856745,69,1546561951283593949,world,0.00402177637443,0.0342284627259,0.0232368651778,0.0358106866479,0.00933783035725,-0.00627629365772,-0.999295353889
1546561951294137611,70,1546561951293909665,world,0.00401287758723,0.0342228002846,0.0232531912625,0.0357013866305,0.00923119205981,-0.00631838804111,-0.999299883842
1546561951294166573,71,1546561951293970147,world,0.00400874018669,0.0342183634639,0.0232677645981,0.0355078279972,0.00903662852943,-0.00634708581492,-0.999308466911
1546561951303447072,72,1546561951303221845,world,0.00401010364294,0.0342160947621,0.0232677459717,0.035448461771,0.0088548893109,-0.00632783398032,-0.999312281609
1546561951303501058,73,1546561951303269335,world,0.00400786520913,0.0342241451144,0.0232572052628,0.0355636663735,0.00824159383774,-0.00625384273008,-0.999313950539
1546561951313810885,74,1546561951313589915,world,0.00398104684427,0.0341429933906,0.0231222528964,0.0366996116936,0.0069912862964,-0.00625012582168,-0.999282360077
1546561951313871720,75,1546561951313650110,world,0.00399260176346,0.0341738909483,0.0231619756669,0.0363828055561,0.00778705719858,-0.00623370148242,-0.999288201332
1546561951324194060,76,1546561951323987010,world,0.00400154199451,0.0341977551579,0.0231943856925,0.0360845327377,0.00852786097676,-0.00629257271066,-0.999292612076
1546561951324347731,77,1546561951324039205,world,0.00400710618123,0.0342044383287,0.0232221074402,0.0358717888594,0.00860165432096,-0.00623837532476,-0.999300003052
1546561951333579972,78,1546561951333337689,world,0.00400834484026,0.0342270955443,0.023235918954,0.0357098095119,0.00889274757355,-0.00633800262585,-0.999302625656
1546561951333599941,79,1546561951333381627,world,0.00400240207091,0.0342339798808,0.0232453905046,0.0356863923371,0.00930301472545,-0.00640214094892,-0.999299287796
1546561951344066608,80,1546561951343776514,world,0.00397919677198,0.034142382443,0.0231048259884,0.0367675051093,0.00796529836953,-0.00641437759623,-0.999271512032
1546561951344129970,81,1546561951343841541,world,0.00399052258581,0.0341763719916,0.0231692120433,0.0362424738705,0.0077163958922,-0.00625474005938,-0.999293684959
1546561951354520154,82,1546561951354207499,world,0.00398887041956,0.0342009849846,0.0232090633363,0.0360211320221,0.00833821110427,-0.0063449870795,-0.999296188354
1546561951354547675,83,1546561951354301231,world,0.00399493006989,0.0342130549252,0.0232328455895,0.0358353853226,0.00883807148784,-0.00637833261862,-0.999298334122
1546561951363759115,84,1546561951363567938,world,0.00400744378567,0.0342158600688,0.0232324730605,0.0356657654047,0.00968513078988,-0.00638701580465,-0.999296545982
1546561951363792844,85,1546561951363621540,world,0.00398665480316,0.0341399200261,0.0231056977063,0.0367418602109,0.00865541957319,-0.00639207195491,-0.999266862869
1546561951374191444,86,1546561951373918215,world,0.00400427170098,0.0341734476388,0.0231491159648,0.0362795852125,0.00927183870226,-0.00632596481591,-0.999278664589
1546561951374220405,87,1546561951373969321,world,0.00400855764747,0.0341897830367,0.0231827385724,0.0360212065279,0.00908230897039,-0.00627778377384,-0.999290108681
1546561951383500744,88,1546561951383314271,world,0.00401174649596,0.0342112332582,0.0232113730162,0.0357660725713,0.00939230900258,-0.0062791230157,-0.999296426773
1546561951383525353,89,1546561951383360449,world,0.00401501683518,0.0342204459012,0.023226890713,0.0356326438487,0.00957239698619,-0.00630432646722,-0.999299287796
1546561951393855021,90,1546561951393681893,world,0.00402182713151,0.034234855324,0.0232458114624,0.0355151742697,0.010224188678,-0.00635518645868,-0.999296665192
1546561951393878030,91,1546561951393740744,world,0.00401462847367,0.0342264510691,0.023255025968,0.0355704687536,0.0094547085464,-0.00629380298778,-0.999302625656
1546561951404253845,92,1546561951404041739,world,0.00401988998055,0.0342360287905,0.0232514794916,0.0356821194291,0.00946326926351,-0.00625356426463,-0.999298810959
1546561951404284758,93,1546561951404092141,world,0.004013214726,0.0342350527644,0.0232564024627,0.0356605015695,0.00965317618102,-0.00635940488428,-0.999297142029
1546561951413611403,94,1546561951413411202,world,0.00398132670671,0.0341432802379,0.0231169052422,0.0369140319526,0.00755347311497,-0.00627818563953,-0.999270200729
1546561951423815050,95,1546561951423659010,world,0.00399304740131,0.0341784097254,0.023183753714,0.0363494977355,0.00775344576687,-0.00629156269133,-0.999289274216
1546561951423838731,96,1546561951423703044,world,0.00400115270168,0.0341961756349,0.0232138410211,0.0360291525722,0.00802470464259,-0.00620380742475,-0.999299287796
1546561951423918158,97,1546561951423725189,world,0.00400625821203,0.0342035703361,0.0232240185142,0.0358393713832,0.00848783738911,-0.00627183495089,-0.9993019104
1546561951434274548,98,1546561951434082091,world,0.00400276994333,0.0342120192945,0.0232385825366,0.0358156710863,0.00814437866211,-0.00620826240629,-0.999305963516
1546561951434296661,99,1546561951434151502,world,0.00401309644803,0.0342173092067,0.0232570320368,0.0357038900256,0.00857392512262,-0.00617637159303,-0.999306559563
1546561951443726927,100,1546561951443489988,world,0.00401467597112,0.0342254191637,0.0232377313077,0.0356611087918,0.00969605706632,-0.00638653570786,-0.999296545982
1546561951443834388,101,1546561951443671532,world,0.00400817254558,0.0342305786908,0.023250984028,0.0355789996684,0.00979151390493,-0.00639994582161,-0.999298453331
1546561951454363265,102,1546561951454113910,world,0.00400676717982,0.0342240668833,0.0232567749918,0.0355418771505,0.00969888735563,-0.00635207258165,-0.999300956726
1546561951454466918,103,1546561951454197146,world,0.00401307549328,0.0342318117619,0.0232571493834,0.035554703325,0.00945375859737,-0.00627292692661,-0.999303340912
1546561951463838078,104,1546561951463571505,world,0.00398877542466,0.0341549366713,0.02311334759,0.0368763655424,0.00830054469407,-0.00635114312172,-0.999265193939
1546561951463899680,105,1546561951463655669,world,0.00400088960305,0.0341796875,0.0231671053916,0.0363176502287,0.00875186920166,-0.00630660308525,-0.999282121658
1546561951474226245,106,1546561951474031355,world,0.00400399509817,0.0341991409659,0.0232053808868,0.0360132791102,0.0085438657552,-0.00626344047487,-0.99929523468
1546561951474262054,107,1546561951474084862,world,0.00400526728481,0.0342069789767,0.0232229661196,0.0357668958604,0.0087615698576,-0.00631409045309,-0.9993019104
1546561951483681504,108,1546561951483466486,world,0.00400501489639,0.0342229567468,0.0232192389667,0.0357805676758,0.00866825319827,-0.00628371816128,-0.999302387238
1546561951483711521,109,1546561951483517848,world,0.00401228293777,0.0342261008918,0.0232348944992,0.0357438921928,0.00893382076174,-0.00621465267614,-0.999301791191
1546561951494160907,110,1546561951493962562,world,0.00401637516916,0.034237511456,0.0232472736388,0.0356177650392,0.00920269265771,-0.00621247058734,-0.999303817749
1546561951494221518,111,1546561951494023844,world,0.00402418011799,0.0342335700989,0.0232417322695,0.0357153564692,0.00910920836031,-0.00606004521251,-0.999302148819
1546561951503518178,112,1546561951503330777,world,0.00402072258294,0.0342277474701,0.0232391972095,0.0357541404665,0.00974740553647,-0.00616898946464,-0.999294042587
1546561951503548899,113,1546561951503393180,world,0.00401146290824,0.0342324376106,0.0232569854707,0.0356204696,0.00963611342013,-0.00625392934307,-0.999299407005
1546561951513886440,114,1546561951513710495,world,0.00400484586135,0.034230556339,0.0232676081359,0.0356398560107,0.00870651938021,-0.00625238427892,-0.999307274818
1546561951513911241,115,1546561951513762338,world,0.00400235923007,0.0342372171581,0.0232660267502,0.0356812514365,0.00861530192196,-0.00625704415143,-0.999306559563
1546561951524240525,116,1546561951524070917,world,0.00402088742703,0.0342380516231,0.0232393350452,0.0358211696148,0.00909168180078,-0.00619195494801,-0.999297738075
1546561951524260494,117,1546561951524122087,world,0.00400887941942,0.0342306680977,0.023245099932,0.0358188264072,0.00864071492106,-0.00633191643283,-0.999300956726
1546561951533681095,118,1546561951533453725,world,0.00401123426855,0.0342315584421,0.0232437681407,0.0356689803302,0.0092881033197,-0.00636137649417,-0.99930036068
1546561951533725225,119,1546561951533505055,world,0.00400378368795,0.0342273823917,0.0232530646026,0.035623177886,0.00912619475275,-0.00640670629218,-0.999303102493
1546561951544021132,120,1546561951543788129,world,0.00400680024177,0.0342321619391,0.0232602991164,0.0354988798499,0.00950642675161,-0.00637389393523,-0.999304175377
1546561951544073390,121,1546561951543847332,world,0.00401481613517,0.0342349112034,0.0232435446233,0.0356921181083,0.00898339878768,-0.00624987017363,-0.999302983284
1546561951554333423,122,1546561951554080644,world,0.00401360262185,0.03423762694,0.0232386291027,0.0356454364955,0.00942349620163,-0.0062964935787,-0.99930024147
1546561951554352240,123,1546561951554128582,world,0.00401229271665,0.0342319607735,0.0232533924282,0.0355615131557,0.00890068244189,-0.00626384327188,-0.999308228493
1546561951563688134,124,1546561951563468412,world,0.00401628995314,0.0342191047966,0.0232600718737,0.0355517454445,0.00855271983892,-0.00614661583677,-0.999312400818
1546561951563745417,125,1546561951563510718,world,0.0040221652016,0.0342282392085,0.0232468247414,0.0356870219111,0.00886628217995,-0.00618367129937,-0.999304652214
1546561951574098350,126,1546561951573879972,world,0.00401593651623,0.0342166535556,0.0232497211546,0.0354716815054,0.00903126969934,-0.00621903548017,-0.999310612679
1546561951574149392,127,1546561951573930374,world,0.00401777727529,0.0342233218253,0.0232548322529,0.0355873592198,0.00895139202476,-0.00617134943604,-0.999307513237
1546561951583452900,128,1546561951583234586,world,0.00398695655167,0.0341333933175,0.0231143105775,0.0368711054325,0.00754175102338,-0.00625862181187,-0.999271988869
1546561951583471525,129,1546561951583294877,world,0.00396440830082,0.0340776070952,0.0230149123818,0.0377278923988,0.00717824883759,-0.00643321825191,-0.9992415905
1546561951593755111,130,1546561951593578143,world,0.0039911866188,0.0341340824962,0.0230916216969,0.0370796732605,0.00814330205321,-0.00627506384626,-0.999259471893
1546561951593777416,131,1546561951593624097,world,0.00400090357289,0.0341712385416,0.0231535788625,0.0364471413195,0.00879437662661,-0.00632522627711,-0.99927687645
1546561951604312086,132,1546561951603923620,world,0.00397262489423,0.0341124720871,0.0230584405363,0.0372755862772,0.007922494784,-0.00640686694533,-0.999253153801
1546561951604343608,133,1546561951603969958,world,0.00399295100942,0.0341625064611,0.0231327805668,0.036612354219,0.00872825831175,-0.0063492609188,-0.999271273613
1546561951614491219,134,1546561951614216742,world,0.0040011992678,0.0341920889914,0.0231779422611,0.0363117866218,0.0084837237373,-0.00618488714099,-0.999285340309
1546561951614511636,135,1546561951614268905,world,0.00400488404557,0.0342083089054,0.0232141576707,0.0359889790416,0.0088785495609,-0.0061842915602,-0.999293684959
1546561951623735204,136,1546561951623514810,world,0.00400651665404,0.0342242978513,0.0232303030789,0.035840574652,0.00901806633919,-0.00616419548169,-0.999297857285
1546561951623764774,137,1546561951623568669,world,0.00401509506628,0.0342372655869,0.0232383012772,0.0357141718268,0.00890755094588,-0.00625300174579,-0.999302864075
1546561951634218384,138,1546561951633805244,world,0.0040224539116,0.0342356972396,0.0232470203191,0.0355235077441,0.00961035676301,-0.00632510241121,-0.999302625656
1546561951634244369,139,1546561951633857567,world,0.00402918644249,0.0342322140932,0.0232483521104,0.0353927537799,0.00959441997111,-0.00619435543194,-0.999308228493
1546561951644343786,140,1546561951644094911,world,0.00403512502089,0.0342326536775,0.0232541058213,0.0353734456003,0.010014148429,-0.00621881335974,-0.999304652214
1546561951644369100,141,1546561951644127328,world,0.0040273074992,0.0342239886522,0.0232540983707,0.0355441570282,0.00969201978296,-0.00624832091853,-0.999301671982
1546561951653673376,142,1546561951653371410,world,0.00401986250654,0.0342151410878,0.0232773050666,0.0354951806366,0.00950382836163,-0.00626880582422,-0.999305009842
1546561951653695713,143,1546561951653417684,world,0.00401887577027,0.0342251732945,0.0232782848179,0.0354309789836,0.00979440752417,-0.00629357853904,-0.999304413795
1546561951663976995,144,1546561951663708406,world,0.00401343032718,0.0342200249434,0.0232599377632,0.0354683063924,0.00921326130629,-0.00635695178062,-0.999308109283
1546561951664027397,145,1546561951663744056,world,0.0039943177253,0.0341366007924,0.0231046956033,0.0368048511446,0.00794177316129,-0.00626474292949,-0.999271273613
1546561951674223107,146,1546561951674023386,world,0.00400287844241,0.0341703295708,0.0231706909835,0.0363301411271,0.0088581237942,-0.00634411070496,-0.999280452728
1546561951674262085,147,1546561951674067228,world,0.00400957884267,0.0341938659549,0.0231858994812,0.0361462496221,0.0087382234633,-0.00615338981152,-0.999289393425
1546561951683524727,148,1546561951683257994,world,0.00401322264224,0.0342064760625,0.0232183821499,0.0358215235174,0.00896729901433,-0.00618063332513,-0.999298930168
1546561951683555160,149,1546561951683309741,world,0.00400761468336,0.0342110432684,0.023231131956,0.0358550064266,0.00836910214275,-0.00615819776431,-0.999302983284
1546561951693876412,150,1546561951693576974,world,0.00401140190661,0.0342284925282,0.0232393331826,0.0357833020389,0.00894487742335,-0.00622138055041,-0.99930024147
1546561951693905662,151,1546561951693635729,world,0.0039842100814,0.0341423787177,0.0231003258377,0.0369364917278,0.00775064621121,-0.00632563466206,-0.999267578125
1546561951704108124,152,1546561951703916947,world,0.00399280525744,0.0341748222709,0.0231517776847,0.0364230722189,0.00815188419074,-0.0063319564797,-0.999283194542
1546561951704166399,153,1546561951703959701,world,0.0039927479811,0.0341950729489,0.0231867805123,0.0360633060336,0.00843215733767,-0.00635175826028,-0.999293804169
1546561951713345165,154,1546561951713176421,world,0.00400039600208,0.0342116616666,0.023215919733,0.0358577184379,0.0087921526283,-0.00632919883355,-0.999298214912
1546561951713395727,155,1546561951713219271,world,0.00401436258107,0.0342172645032,0.0232294127345,0.0356625765562,0.00963045284152,-0.00633312342688,-0.999297499657
1546561951723818968,156,1546561951723554347,world,0.00400995044038,0.0342188179493,0.0232465863228,0.0356494635344,0.00929752364755,-0.00630011828616,-0.999301314354
1546561951723912924,157,1546561951723634703,world,0.00402121804655,0.0342218205333,0.0232512541115,0.0356000512838,0.00960292574018,-0.00625514890999,-0.999300479889
1546561951734107386,158,1546561951733907793,world,0.00399581249803,0.0341357886791,0.0231100451201,0.0368363931775,0.0081499889493,-0.00635900255293,-0.999267935753
1546561951734142428,159,1546561951733953971,world,0.00400891946629,0.0341704078019,0.0231574550271,0.0363349616528,0.00878993049264,-0.00629291217774,-0.999281287193
1546561951744397276,160,1546561951744145616,world,0.00400430103764,0.0341841168702,0.0231922715902,0.0359859503806,0.00881292112172,-0.00634174095467,-0.999293327332
1546561951744424062,161,1546561951744196307,world,0.00400906475261,0.0341956391931,0.0232110247016,0.0358453057706,0.00946813821793,-0.00635613268241,-0.999292373657
1546561951753611948,162,1546561951753440036,world,0.00401334837079,0.034211229533,0.0232262164354,0.0356866791844,0.00953635200858,-0.00638344604522,-0.999297142029
1546561951753641486,163,1546561951753488230,world,0.00401843385771,0.0342234633863,0.0232252217829,0.0356631092727,0.00926580652595,-0.00628252699971,-0.999301195145
1546561951764010900,164,1546561951763821803,world,0.00402098475024,0.0342206992209,0.0232288278639,0.0356605425477,0.00972274132073,-0.00625048344955,-0.999297142029
1546561951764057494,165,1546561951763868877,world,0.00401361659169,0.0342217385769,0.0232338700444,0.0355761349201,0.00948814302683,-0.00617608707398,-0.999302864075
1546561951774326199,166,1546561951774155919,world,0.00400701956823,0.0342307947576,0.0232484638691,0.0355608016253,0.00949411001056,-0.00624999124557,-0.999302864075
1546561951774384058,167,1546561951774208434,world,0.00401535537094,0.0342338196933,0.0232578162104,0.0354112349451,0.0101011842489,-0.00632586050779,-0.999301791191
1546561951783892664,168,1546561951783645836,world,0.00401799473912,0.0342322289944,0.0232585407794,0.0353854559362,0.00977563578635,-0.00625483551994,-0.999306440353
1546561951783921337,169,1546561951783712335,world,0.00400852039456,0.0342304036021,0.023268904537,0.0354050025344,0.00953805167228,-0.00631813332438,-0.999307632446
1546561951794216347,170,1546561951794009234,world,0.0040073916316,0.0342318303883,0.0232623089105,0.0355195365846,0.00960411503911,-0.00629589613527,-0.999303102493
1546561951794272542,171,1546561951794066612,world,0.00397358136252,0.0341385006905,0.0231220535934,0.0367364995182,0.00857236981392,-0.00643548322842,-0.999267578125
1546561951803521136,172,1546561951803370217,world,0.00398890813813,0.0341675132513,0.0231659263372,0.0363087058067,0.00886602327228,-0.00638909684494,-0.999280929565
1546561951803703704,173,1546561951803431339,world,0.00400331709534,0.0341937467456,0.0231908317655,0.036052968353,0.00931634940207,-0.00634372374043,-0.999286293983
1546561951813975258,174,1546561951813727534,world,0.00401748390868,0.0342017151415,0.0232049617916,0.0360303595662,0.00984993949533,-0.00627759564668,-0.999282479286
1546561951814016604,175,1546561951813783665,world,0.00401757378131,0.03421581164,0.0232322122902,0.0358328260481,0.00979324616492,-0.00633029127494,-0.999289870262
1546561951824242459,176,1546561951824028337,world,0.00401707272977,0.0342243611813,0.023228129372,0.0357496999204,0.0103440927342,-0.00637285830453,-0.99928689003
1546561951824260572,177,1546561951824083763,world,0.00398149015382,0.0341331288218,0.0230894517154,0.0368910841644,0.00887372065336,-0.00646100193262,-0.999259114265
1546561951833533806,178,1546561951833336805,world,0.00399229396135,0.0341687463224,0.0231483895332,0.0363219901919,0.00950539670885,-0.006386869587,-0.999274611473
1546561951833662964,179,1546561951833387304,world,0.00400182511657,0.034189876169,0.0231961421669,0.035996671766,0.00916866958141,-0.00624158792198,-0.999290466309
1546561951844054011,180,1546561951843776590,world,0.00401483802125,0.0342057235539,0.0232090074569,0.0359472706914,0.00909631699324,-0.00621150853112,-0.999293088913
1546561951844072220,181,1546561951843830865,world,0.00401545548812,0.0342160798609,0.0232233740389,0.0358735956252,0.00887813791633,-0.00621230574325,-0.999297618866
1546561951854326941,182,1546561951854127220,world,0.00401967624202,0.0342227108777,0.0232282504439,0.0358570218086,0.00915346387774,-0.00622289068997,-0.999295711517
1546561951854401889,183,1546561951854173590,world,0.00401887251064,0.0342323258519,0.0232286155224,0.0358290560544,0.00951321423054,-0.00624951487407,-0.999293208122
1546561951863680659,184,1546561951863473322,world,0.00401969766244,0.0342323295772,0.0232272613794,0.0357842296362,0.00975831504911,-0.00617684330791,-0.999292850494
1546561951863708021,185,1546561951863517132,world,0.00401067081839,0.034220982343,0.0232465006411,0.035713866353,0.0090519413352,-0.00616651726887,-0.99930202961
1546561951873986999,186,1546561951873761676,world,0.00399807048962,0.0341399163008,0.023106969893,0.0368867851794,0.00887096486986,-0.00623269146308,-0.999260663986
1546561951874023032,187,1546561951873813934,world,0.00400161696598,0.034172013402,0.0231574904174,0.0364198312163,0.00844704639167,-0.00622384669259,-0.999281525612
1546561951884306906,188,1546561951884092496,world,0.00400776648894,0.0341932699084,0.0231951400638,0.0361264757812,0.00832510180771,-0.00618766387925,-0.999293446541
1546561951884333436,189,1546561951884141395,world,0.00400755554438,0.0341977849603,0.0232216492295,0.0359019301832,0.0084890043363,-0.00621385453269,-0.999300003052
1546561951893538635,190,1546561951893373315,world,0.00401223357767,0.0342104509473,0.0232359897345,0.0356951840222,0.00914597511292,-0.00622137216851,-0.999301552773
1546561951893561292,191,1546561951893421702,world,0.00400093616918,0.0342219993472,0.0232526864856,0.0356806926429,0.00868401117623,-0.00626969058067,-0.999305844307
1546561951904015542,192,1546561951903784619,world,0.00400679791346,0.0342243872583,0.023252338171,0.0356347896159,0.00853776559234,-0.00628135353327,-0.99930870533
1546561951904038935,193,1546561951903870447,world,0.00400283606723,0.0342360511422,0.0232556015253,0.0355513058603,0.00843961536884,-0.00624768575653,-0.999312758446
1546561951913347275,194,1546561951913195780,world,0.00400937534869,0.0342281460762,0.0232618115842,0.0355916693807,0.0086850002408,-0.00624582637101,-0.999309182167
1546561951913568118,195,1546561951913242855,world,0.00401153741404,0.0342230200768,0.0232746955007,0.0355221666396,0.00869470089674,-0.00626419996843,-0.999311447144
1546561951923706385,196,1546561951923549898,world,0.00401200959459,0.0342226400971,0.0232752729207,0.0355154983699,0.00887254439294,-0.00622838176787,-0.99931037426
1546561951923732658,197,1546561951923586315,world,0.00401808088645,0.0342194475234,0.0232585389167,0.035711787641,0.00942460913211,-0.00623208656907,-0.999298334122
1546561951934053974,198,1546561951933866285,world,0.00402043201029,0.0342219658196,0.0232470985502,0.0357060059905,0.0100634722039,-0.00628062477335,-0.999292016029
1546561951934105272,199,1546561951933915856,world,0.00402106018737,0.0342176407576,0.0232509896159,0.0356524512172,0.00986799225211,-0.00624667527154,-0.999296069145
1546561951944444701,200,1546561951944214674,world,0.00399114284664,0.0341315828264,0.0231073778123,0.0369004495442,0.0084221046418,-0.00625488115475,-0.999263882637
1546561951944517569,201,1546561951944308439,world,0.0039722523652,0.0340690612793,0.023030621931,0.0375234223902,0.00778859388083,-0.00641352916136,-0.999244809151
1546561951953770258,202,1546561951953582953,world,0.00397832784802,0.03412861377,0.0231232922524,0.0367651283741,0.00800842605531,-0.00636908970773,-0.999271631241
1546561951953803284,203,1546561951953637836,world,0.00399100594223,0.0341555550694,0.0231698211282,0.0362426526845,0.00848972797394,-0.00627054274082,-0.999287366867
1546561951964075317,204,1546561951963923182,world,0.00397130893543,0.0340996943414,0.0230678077787,0.0370989926159,0.00769630540162,-0.0063162362203,-0.999262094498
1546561951964276031,205,1546561951963973681,world,0.00398895749822,0.0341551452875,0.0231452379376,0.0363503433764,0.00882248859853,-0.00626917928457,-0.999280571938
1546561951974385497,206,1546561951974223249,world,0.00399769796059,0.0342002660036,0.0231826994568,0.0359783433378,0.00938463676721,-0.00629712129012,-0.999288678169
1546561951974531967,207,1546561951974276019,world,0.00401211902499,0.0342184156179,0.0232113618404,0.0357127375901,0.00954967737198,-0.0061993743293,-0.999297261238
1546561951983729551,208,1546561951983512100,world,0.00401496840641,0.0342236347497,0.0232330821455,0.0355144068599,0.00990584213287,-0.00622824765742,-0.999300718307
1546561951983799858,209,1546561951983550854,world,0.00401611067355,0.0342263430357,0.0232373382896,0.0355696752667,0.00990249868482,-0.00625451793894,-0.99929857254
1546561951993949710,210,1546561951993770501,world,0.00401575956494,0.0342227444053,0.0232494845986,0.0356601178646,0.00948920845985,-0.0062289009802,-0.999299526215
1546561951993975311,211,1546561951993822792,world,0.00400774460286,0.0342218875885,0.0232616700232,0.0356066897511,0.00891136843711,-0.00626000855118,-0.999306559563
1546561952004226287,212,1546561952004046503,world,0.0040073748678,0.0342261828482,0.0232618749142,0.0355744808912,0.00950754899532,-0.00632526865229,-0.999301791191
1546561952004254353,213,1546561952004094153,world,0.00400226190686,0.034222394228,0.0232651531696,0.0355011373758,0.00915198773146,-0.00635801069438,-0.999307513237
1546561952013481313,214,1546561952013348603,world,0.0040029254742,0.0342277809978,0.0232753213495,0.0353764668107,0.00900817941874,-0.00627349596471,-0.999313831329
1546561952013612839,215,1546561952013396605,world,0.0039948830381,0.0342231802642,0.0232859887183,0.0352656617761,0.00914398767054,-0.00637045642361,-0.999315857887
1546561952023809701,216,1546561952023619420,world,0.00400411849841,0.0342190675437,0.0232649277896,0.0353870540857,0.00919237267226,-0.00628858897835,-0.999311685562
1546561952023849831,217,1546561952023662846,world,0.00400199787691,0.0342287160456,0.0232641343027,0.0353177003562,0.00897009018809,-0.00621924316511,-0.999316573143
1546561952034021860,218,1546561952033896158,world,0.00400343723595,0.0342258736491,0.0232629030943,0.035482943058,0.00890596490353,-0.00624672556296,-0.999311089516
1546561952034139625,219,1546561952033938880,world,0.00399999367073,0.0342195518315,0.0232619456947,0.0355734415352,0.00904738344252,-0.00631227577105,-0.999306201935
1546561952044369129,220,1546561952044180672,world,0.0040096603334,0.0342124328017,0.0232636053115,0.0354273915291,0.009621264413,-0.00630712416023,-0.999306082726
1546561952044480814,221,1546561952044207585,world,0.00397883309051,0.0341268852353,0.0231218263507,0.0366094894707,0.00868885777891,-0.0063930391334,-0.999271512032
1546561952053626235,222,1546561952053459987,world,0.00400057993829,0.0341596864164,0.0231783296913,0.0361788161099,0.00896663591266,-0.0062494603917,-0.999285578728
1546561952053697566,223,1546561952053503157,world,0.00399722484872,0.0341811925173,0.0232135429978,0.0358484424651,0.00861009862274,-0.00625098869205,-0.999300599098
1546561952063935486,224,1546561952063728020,world,0.00400020508096,0.0341899059713,0.0232313163579,0.0356860086322,0.00919527839869,-0.00622274726629,-0.999301433563
1546561952063960479,225,1546561952063754326,world,0.00400796346366,0.0342006459832,0.0232463739812,0.0355331972241,0.00928699504584,-0.00620916485786,-0.999306082726
1546561952074185854,226,1546561952074028215,world,0.00401537958533,0.0342089533806,0.0232488345355,0.0355337038636,0.00888487510383,-0.00609611114487,-0.99931037426
1546561952074314661,227,1546561952074075065,world,0.00400647521019,0.0342216156423,0.0232410673052,0.035593777895,0.0085132997483,-0.00613470701501,-0.999311327934
1546561952083483378,228,1546561952083305578,world,0.00400886731222,0.0342191569507,0.0232395641506,0.0356208905578,0.00879944581538,-0.00618625571951,-0.999307513237
1546561952083543029,229,1546561952083357612,world,0.00397472502664,0.0341454781592,0.0231037829071,0.0368158109486,0.00775719899684,-0.00633885944262,-0.999271869659
1546561952093947389,230,1546561952093695121,world,0.00398500217125,0.0341682545841,0.0231579076499,0.0364007540047,0.00824894290417,-0.00635481998324,-0.999283075333
1546561952093976702,231,1546561952093754836,world,0.00398436747491,0.0341873951256,0.023202881217,0.0360438078642,0.00831941422075,-0.00633771903813,-0.999295592308
1546561952104239455,232,1546561952103980883,world,0.00396622112021,0.0341160297394,0.0230810623616,0.0370081067085,0.00791832152754,-0.006367075257,-0.9992634058
1546561952104290690,233,1546561952104029589,world,0.00396024342626,0.0340807810426,0.0229991544038,0.0376846604049,0.00758876185864,-0.00645091291517,-0.999240040779
1546561952113417997,234,1546561952113213956,world,0.00397332152352,0.034134618938,0.0230938531458,0.0368643552065,0.00801669992507,-0.00632734317333,-0.999268174171
1546561952113465104,235,1546561952113262502,world,0.0039859409444,0.0341630913317,0.0231657288969,0.0362815484405,0.00781272165477,-0.00616169488057,-0.999292135239
1546561952123704016,236,1546561952123484965,world,0.00399302644655,0.0341886803508,0.0232074148953,0.0359280779958,0.00832336582243,-0.0061168577522,-0.999301075935
1546561952123785747,237,1546561952123528967,world,0.00399218592793,0.0341984517872,0.0232457723469,0.0357354097068,0.00841476302594,-0.00620406074449,-0.999306678772
1546561952133918510,238,1546561952133742470,world,0.00400301907212,0.0342057794333,0.0232562609017,0.0354825928807,0.00903515983373,-0.00621797144413,-0.999310135841
1546561952133950896,239,1546561952133781384,world,0.00397172383964,0.0341334119439,0.0231312643737,0.0365093126893,0.00785592477769,-0.00630096206442,-0.999282598495
1546561952144177519,240,1546561952143997735,world,0.00396001106128,0.0340804867446,0.0230429861695,0.0373440086842,0.00718897208571,-0.00634789001197,-0.999256491661
1546561952144248403,241,1546561952144027592,world,0.00398145243526,0.0341462753713,0.0231208838522,0.0367195867002,0.00827781669796,-0.00626676250249,-0.99927175045
1546561952153377662,242,1546561952153210775,world,0.00396802462637,0.0340934060514,0.0230260975659,0.0374677665532,0.00795157067478,-0.00638232799247,-0.999245882034
1546561952153491588,243,1546561952153258137,world,0.00394523376599,0.0340509526432,0.0229852981865,0.0378701463342,0.00726996548474,-0.0064058653079,-0.999235749245
1546561952163681921,244,1546561952163489848,world,0.00397438695654,0.0341272763908,0.0230936035514,0.0369433686137,0.00793628580868,-0.00626471173018,-0.999266266823
1546561952163705635,245,1546561952163524506,world,0.00399143481627,0.0341712348163,0.0231581293046,0.0363758578897,0.00855206884444,-0.00624748831615,-0.999282121658
1546561952173899904,246,1546561952173755514,world,0.00399442762136,0.0341973900795,0.0232005063444,0.0359534062445,0.00874799024314,-0.00629064673558,-0.999295473099
1546561952173957795,247,1546561952173810044,world,0.00396991847083,0.0341229960322,0.0230921283364,0.0370218679309,0.00743333157152,-0.00634764507413,-0.99926674366
1546561952184217156,248,1546561952184029627,world,0.0039534359239,0.0340833812952,0.0230181850493,0.0377572178841,0.0071787154302,-0.00644539203495,-0.999240398407
1546561952184253094,249,1546561952184077181,world,0.00394422793761,0.0340494811535,0.0229801852256,0.0381421223283,0.00641444139183,-0.00641469378024,-0.999231219292
1546561952193340112,250,1546561952193213098,world,0.00397125445306,0.0341178327799,0.0230963621289,0.0370294190943,0.00754787540063,-0.00634190626442,-0.999265551567
1546561952193386610,251,1546561952193253004,world,0.00397210242227,0.0340831428766,0.023016538471,0.0377551205456,0.00762591324747,-0.00636588176712,-0.999237656593
1546561952203689653,252,1546561952203462122,world,0.00396023876965,0.0340465828776,0.0229703690857,0.0380321666598,0.00731882359833,-0.00632456690073,-0.99922978878
1546561952203719286,253,1546561952203503084,world,0.00395447108895,0.0340369641781,0.0229496676475,0.0381060391665,0.00719512766227,-0.00630115717649,-0.999228000641
1546561952213876818,254,1546561952213732715,world,0.00397056620568,0.0341109856963,0.0230840053409,0.0369556099176,0.00829939730465,-0.00632728636265,-0.999262452126
1546561952213963126,255,1546561952213777262,world,0.00396145321429,0.0340718403459,0.0230200719088,0.0375764705241,0.0072787120007,-0.00635118875653,-0.999247074127
1546561952224163636,256,1546561952224009965,world,0.00397332850844,0.034131385386,0.0231491047889,0.03641564399,0.00776966707781,-0.00628969445825,-0.999286770821
1546561952224216215,257,1546561952224052399,world,0.00397819746286,0.0341716632247,0.0232165344059,0.0358112864196,0.00858566258103,-0.00634551700205,-0.999301552773
1546561952233364644,258,1546561952233220221,world,0.00398367224261,0.034195240587,0.0232488922775,0.0355500243604,0.00882454123348,-0.00632761279121,-0.999308943748
1546561952233483817,259,1546561952233254975,world,0.00397504027933,0.0341201238334,0.0231122355908,0.0367659665644,0.00833984091878,-0.00639597931877,-0.999268651009
1546561952243647334,260,1546561952243482206,world,0.00395703688264,0.0340743660927,0.0230370573699,0.0374716669321,0.00740848481655,-0.0064066410996,-0.999249696732
1546561952243733770,261,1546561952243530592,world,0.00397252524272,0.0341349728405,0.0231369994581,0.0366632528603,0.00864704232663,-0.00645859958604,-0.999269485474
1546561952253910887,262,1546561952253752735,world,0.0039873928763,0.0341726541519,0.0231886580586,0.0361408926547,0.00899408757687,-0.00637391069904,-0.999285936356
1546561952253934120,263,1546561952253792705,world,0.00397592876107,0.0341132171452,0.0231024827808,0.0369325019419,0.0079180682078,-0.00630700029433,-0.999266505241
1546561952264161895,264,1546561952264024673,world,0.00398411555216,0.0341529324651,0.0231789369136,0.0362080298364,0.00875464547426,-0.00632552150637,-0.999285936356
1546561952264229194,265,1546561952264069699,world,0.00396807538345,0.0340990796685,0.023069916293,0.0371314436197,0.00790962483734,-0.00637308042496,-0.999258875847
1546561952273405625,266,1546561952273239057,world,0.00399211747572,0.0341518372297,0.0231674853712,0.0362630747259,0.00865299068391,-0.00630370760337,-0.999284982681
1546561952273435418,267,1546561952273285683,world,0.00397387892008,0.0340936072171,0.023070961237,0.0370223931968,0.00786785315722,-0.00628521386534,-0.999263763428
1546561952283733277,268,1546561952283512082,world,0.00398197490722,0.0341471657157,0.0231533832848,0.0364673137665,0.00797985307872,-0.00623950595036,-0.99928355217
1546561952283759326,269,1546561952283535955,world,0.00397127494216,0.0341037102044,0.0230496432632,0.0374073386192,0.00696423370391,-0.00614530453458,-0.999256968498
1546561952293924890,270,1546561952293752850,world,0.00398191809654,0.034154061228,0.0231352020055,0.0366498157382,0.0081692552194,-0.00626145256683,-0.99927520752
1546561952293944443,271,1546561952293789108,world,0.00398661801592,0.0341814532876,0.0231878850609,0.0361539460719,0.00844070594758,-0.00623882981017,-0.999291181564
1546561952304223293,272,1546561952304027092,world,0.00396187370643,0.0341099835932,0.0230842959136,0.0370063744485,0.00751633150503,-0.00635354220867,-0.999266624451
1546561952304278112,273,1546561952304082902,world,0.00398613279685,0.0341522544622,0.0231566075236,0.0362956374884,0.00840782094747,-0.00618008011952,-0.999286651611
1546561952313499664,274,1546561952313326024,world,0.00399142596871,0.0341775231063,0.0232136230916,0.035799138248,0.0091407103464,-0.00628347229213,-0.999297499657
1546561952313594708,275,1546561952313372042,world,0.00396977365017,0.0341158136725,0.0230945646763,0.0368283763528,0.00858873408288,-0.00638419343159,-0.999264359474
1546561952323778962,276,1546561952323595241,world,0.00396143971011,0.0340749882162,0.0230278018862,0.0373853817582,0.00787520874292,-0.00641676643863,-0.999249339104
1546561952323816083,277,1546561952323642539,world,0.00395055767149,0.0340387746692,0.0229823011905,0.037766020745,0.00786459073424,-0.00647111749277,-0.99923479557
1546561952334033458,278,1546561952333852042,world,0.00397171499208,0.0341013707221,0.0231107566506,0.0367675796151,0.00822162628174,-0.00635969266295,-0.999269843102
1546561952334093589,279,1546561952333902380,world,0.00397949805483,0.0341489911079,0.0231955256313,0.0359576977789,0.00856775045395,-0.00632201787084,-0.999296665192
1546561952344323573,280,1546561952344125163,world,0.00396393286064,0.0340950489044,0.0230919029564,0.0368271991611,0.00769193749875,-0.0063406676054,-0.999271988869
1546561952344348118,281,1546561952344170190,world,0.00394776696339,0.034058380872,0.0230300817639,0.0375237837434,0.00728892348707,-0.00635873479769,-0.999248981476
1546561952353566726,282,1546561952353389278,world,0.00394878769293,0.0340351089835,0.022985747084,0.0378622859716,0.00772823020816,-0.00645254179835,-0.999232292175
1546561952353589383,283,1546561952353433344,world,0.00397125957534,0.0341028012335,0.0231100376695,0.0367555879056,0.00900909584016,-0.00645759841427,-0.999262809753
1546561952363836551,284,1546561952363663487,world,0.00396777782589,0.0340677127242,0.0230304338038,0.037518594414,0.00825529545546,-0.00631474284455,-0.999241948128
1546561952363919403,285,1546561952363705089,world,0.00398779148236,0.0341296233237,0.0231342427433,0.0365755967796,0.00871414132416,-0.00630187662318,-0.999273061752
1546561952374045030,286,1546561952373914976,world,0.00400226330385,0.0341676548123,0.0231923405081,0.0359959900379,0.0096770087257,-0.00625869212672,-0.999285459518
1546561952374181580,287,1546561952373959490,world,0.00401296606287,0.0341990068555,0.0232195798308,0.0357061102986,0.0100126173347,-0.00627579726279,-0.999292492867
1546561952384322984,288,1546561952384180609,world,0.00401361100376,0.0342120714486,0.0232385788113,0.0357167162001,0.00945196952671,-0.00618757447228,-0.999298095703
1546561952384345033,289,1546561952384233251,world,0.00397987198085,0.034134760499,0.0231312457472,0.0366175957024,0.00885882042348,-0.00634768465534,-0.999269962311
1546561952393590394,290,1546561952393444339,world,0.00399105763063,0.0341702252626,0.023183606565,0.0362166576087,0.00897444225848,-0.00618747295812,-0.999284505844
1546561952393616795,291,1546561952393483925,world,0.00400136737153,0.0341975204647,0.0232243891805,0.0358466282487,0.00874175876379,-0.00609968882054,-0.999300479889
1546561952403806713,292,1546561952403685715,world,0.00398109620437,0.034118425101,0.0231159422547,0.036909006536,0.00777414720505,-0.0061166882515,-0.999269723892
1546561952403910654,293,1546561952403728981,world,0.0039926446043,0.0341556854546,0.0231757666916,0.0362870655954,0.00844227615744,-0.00612592650577,-0.999287009239
1546561952414101435,294,1546561952413984822,world,0.00398914888501,0.0341862998903,0.0232295449823,0.0358190611005,0.00931298919022,-0.00624595023692,-0.999295473099
1546561952414171679,295,1546561952414012119,world,0.00399804580957,0.0341988876462,0.0232476331294,0.0356099307537,0.00946292188019,-0.00617949711159,-0.9993019104
1546561952423295242,296,1546561952423166788,world,0.00399867864326,0.0342211164534,0.0232634879649,0.035537570715,0.00948971416801,-0.00623907288536,-0.999303817749
1546561952423366222,297,1546561952423213255,world,0.00400448404253,0.0342152155936,0.0232791285962,0.0352920219302,0.0101577555761,-0.00622423598543,-0.999306082726
1546561952433554059,298,1546561952433435750,world,0.00399652216583,0.0342226810753,0.0232903044671,0.0352144502103,0.00948760751635,-0.00623185560107,-0.99931538105
1546561952433659984,299,1546561952433474023,world,0.00400620838627,0.034210652113,0.0232854243368,0.0353273525834,0.00949572771788,-0.0061717601493,-0.999311685562
1546561952443897296,300,1546561952443720104,world,0.00399394799024,0.0342155657709,0.0232975333929,0.035134781152,0.00941267330199,-0.00630960334092,-0.999318361282
1546561952443923569,301,1546561952443770282,world,0.00399430096149,0.0342206470668,0.0232954826206,0.0352227985859,0.00989719480276,-0.00641351146623,-0.999309897423
1546561952454215028,302,1546561952454076813,world,0.00399151770398,0.0342228598893,0.0232896041125,0.0353011339903,0.00957246311009,-0.00637645227835,-0.999310612679
1546561952454288567,303,1546561952454120143,world,0.00397946080193,0.0341307930648,0.02314000763,0.0365859679878,0.00821190979332,-0.0063972347416,-0.999276280403
1546561952463442468,304,1546561952463328063,world,0.00397769408301,0.0341631807387,0.0231991782784,0.0359994471073,0.00902955140918,-0.00652118120342,-0.999289751053
1546561952463539561,305,1546561952463366337,world,0.00398749858141,0.0341862738132,0.0232124757022,0.0358089022338,0.0095287906006,-0.00655366573483,-0.999291777611
1546561952473737031,306,1546561952473613537,world,0.00396684743464,0.034112457186,0.0231056790799,0.0367786549032,0.0087973838672,-0.00653023412451,-0.9992634058
1546561952473893422,307,1546561952473661731,world,0.00397475995123,0.034149993211,0.0231782514602,0.0361125692725,0.00917087402195,-0.00650330167264,-0.999284505844
1546561952484048042,308,1546561952483919524,world,0.00398576259613,0.0341773964465,0.0232178270817,0.0357394963503,0.00944625865668,-0.00646002870053,-0.999295711517
1546561952484128206,309,1546561952483969254,world,0.00396386813372,0.0340998359025,0.0231148395687,0.0366323851049,0.00806091632694,-0.00644938787445,-0.999275565147
1546561952494325964,310,1546561952494202886,world,0.00397879676893,0.0341568402946,0.0231757350266,0.0361442603171,0.00888702459633,-0.00647133588791,-0.999286174774
1546561952494438129,311,1546561952494249736,world,0.00398793630302,0.0341877602041,0.0232191644609,0.0356419160962,0.00984970293939,-0.00652260938659,-0.999294877052
1546561952503614879,312,1546561952503483161,world,0.00395884132013,0.034107144922,0.0231040790677,0.0366675853729,0.00850702915341,-0.00660238834098,-0.999269485474
1546561952503678850,313,1546561952503535099,world,0.00396157475188,0.0341493748128,0.0231759455055,0.0361386500299,0.0087868347764,-0.00649924436584,-0.999287009239
1546561952513912962,314,1546561952513759195,world,0.00397238275036,0.0341815426946,0.02320545353,0.0357369296253,0.00955818127841,-0.00647866120562,-0.999294638634
1546561952514017063,315,1546561952513808317,world,0.00396559713408,0.0341085642576,0.0231034271419,0.0367569848895,0.00909376889467,-0.00646962318569,-0.999261975288
1546561952524133473,316,1546561952524022972,world,0.00394717883319,0.0340607315302,0.0230395291001,0.0374200902879,0.00802545808256,-0.00647650146857,-0.999246478081
1546561952524195492,317,1546561952524067262,world,0.00396829145029,0.0341189205647,0.023133745417,0.0366508550942,0.0085629587993,-0.00641145231202,-0.999270915985
1546561952533339024,318,1546561952533212811,world,0.00396144436672,0.0340708121657,0.0230672769248,0.0373229719698,0.0079879546538,-0.00644392799586,-0.999250650406
1546561952533457750,319,1546561952533260045,world,0.00395359704271,0.0340339504182,0.0230033434927,0.0378654897213,0.00709551293403,-0.00630879728124,-0.999237775803
1546561952543745816,320,1546561952543544079,world,0.00396660575643,0.0341004021466,0.0231015775353,0.0369217768312,0.00812658015639,-0.00631386460736,-0.999265193939
1546561952543827996,321,1546561952543610642,world,0.00397621234879,0.0341541022062,0.0231709498912,0.0362638309598,0.00901493150741,-0.00639968784526,-0.999281167984
1546561952554000409,322,1546561952553857234,world,0.00399389443919,0.0341881327331,0.0232284255326,0.0356176234782,0.0100930752233,-0.00635904027149,-0.999294400215
1546561952554060604,323,1546561952553910837,world,0.00399566395208,0.0342049263418,0.0232657976449,0.0352492965758,0.0103712398559,-0.00641913153231,-0.999304175377
1546561952564322237,324,1546561952564150069,world,0.0039922776632,0.0342197977006,0.0232930276543,0.0350560285151,0.0099481055513,-0.00635292613879,-0.999315738678
1546561952564428674,325,1546561952564197495,world,0.00397001486272,0.0341292619705,0.0231724884361,0.0361420661211,0.00938846170902,-0.00646880548447,-0.999281644821
1546561952573573742,326,1546561952573447624,world,0.00397536624223,0.0341636128724,0.0232166312635,0.0357363857329,0.00933159515262,-0.00643282476813,-0.99929702282
1546561952573665171,327,1546561952573490666,world,0.00399426650256,0.0341866500676,0.0232364200056,0.0355132743716,0.00940707139671,-0.00631940877065,-0.999305009842
1546561952583839888,328,1546561952583714634,world,0.00396998506039,0.0341167412698,0.0231216382235,0.0366340987384,0.00808366388083,-0.00629762746394,-0.999276280403
1546561952583887314,329,1546561952583755308,world,0.00395612930879,0.0340710803866,0.0230486541986,0.0372667461634,0.00743934279308,-0.0063375774771,-0.999257564545
1546561952594104945,330,1546561952593977611,world,0.00397175131366,0.0341275408864,0.0231414027512,0.0364774949849,0.00828376132995,-0.00628521852195,-0.999280452728
1546561952594127250,331,1546561952594007980,world,0.00398064590991,0.0341578796506,0.0232026949525,0.0361016727984,0.00903250090778,-0.0063494197093,-0.999287128448
1546561952603280383,332,1546561952603162201,world,0.00396622950211,0.0340925976634,0.0230991430581,0.0370407365263,0.00821123924106,-0.00637705996633,-0.999259710312
1546561952603343042,333,1546561952603202491,world,0.00398641219363,0.034141741693,0.0231629386544,0.0363395065069,0.00887216627598,-0.00634373864159,-0.999279975891
1546561952613519615,334,1546561952613412378,world,0.00396916735917,0.034088794142,0.0230806525797,0.0369715429842,0.00897073186934,-0.00651337578893,-0.999254822731
1546561952613633156,335,1546561952613447067,world,0.00398743199185,0.0341421999037,0.0231546554714,0.0363977365196,0.00983013492078,-0.00641660299152,-0.999268531799
1546561952623814465,336,1546561952623681307,world,0.00399262038991,0.034180868417,0.0232150349766,0.0358606353402,0.0098895104602,-0.00639021769166,-0.999287486076
1546561952623845027,337,1546561952623733246,world,0.00398689555004,0.0342052988708,0.023254936561,0.0354724526405,0.0100739309564,-0.00651988852769,-0.99929869175
1546561952634376112,338,1546561952633964605,world,0.00399942975491,0.0342201516032,0.023274295032,0.0350496917963,0.0108055491,-0.0065190969035,-0.999305963516
1546561952634397521,339,1546561952633989054,world,0.00399614637718,0.0342242456973,0.0232837982476,0.0350970104337,0.0105125876144,-0.00642212620005,-0.999307990074
1546561952644375781,340,1546561952644212765,world,0.00397028867155,0.0341331250966,0.0231607891619,0.0362512692809,0.00937693193555,-0.0064755496569,-0.999277830124
1546561952644407207,341,1546561952644273920,world,0.00394744612277,0.0340773276985,0.0230848956853,0.0370909869671,0.00802777241915,-0.00649332068861,-0.999258637428
1546561952653643800,342,1546561952653501873,world,0.0039644590579,0.0341274961829,0.0231662001461,0.0364003516734,0.00873139314353,-0.00640291441232,-0.999278664589
1546561952653713499,343,1546561952653549875,world,0.00398488389328,0.0341553203762,0.023231940344,0.0357944220304,0.00917578767985,-0.00631176028401,-0.999297142029
1546561952663913881,344,1546561952663795859,world,0.00399393867701,0.0341826155782,0.0232587363571,0.0354836955667,0.00949852354825,-0.00628408556804,-0.99930536747
1546561952664027326,345,1546561952663838581,world,0.00398634700105,0.0341885797679,0.0232782457024,0.0351989492774,0.00946442689747,-0.00635985704139,-0.999315261841
1546561952674179066,346,1546561952674059220,world,0.00396116357297,0.03411366418,0.0231535360217,0.036300662905,0.00869195442647,-0.00650013331324,-0.999282002449
1546561952674319969,347,1546561952674103030,world,0.00398465013131,0.0341567955911,0.0232082773,0.0358286872506,0.00958223175257,-0.0064261467196,-0.999291419983
1546561952683459853,348,1546561952683316710,world,0.00396220525727,0.0340879559517,0.0231045242399,0.0368086099625,0.00836825277656,-0.00639757839963,-0.999266862869
1546561952683635989,349,1546561952683360552,world,0.00394516903907,0.0340535491705,0.0230460036546,0.0373647622764,0.00756036816165,-0.00650356709957,-0.999251961708
1546561952693695437,350,1546561952693583752,world,0.00388332502916,0.0341734290123,0.0232973657548,0.0349672846496,0.012441271916,-0.00780854327604,-0.999280571938
1546561952703978063,351,1546561952703828648,world,0.00391892530024,0.034197602421,0.0233029853553,0.03501906991,0.0112839685753,-0.00734156835824,-0.999296069145
1546561952704140310,352,1546561952703882154,world,0.00394813111052,0.0342045463622,0.0233240686357,0.0347395464778,0.0109393782914,-0.00700393645093,-0.99931204319
1546561952704199289,353,1546561952703898571,world,0.00395685061812,0.0342095792294,0.0233283471316,0.0347978249192,0.0109495203942,-0.00695388391614,-0.999310255051
1546561952714263953,354,1546561952714125354,world,0.00395136419684,0.0341263972223,0.0231710206717,0.0361617654562,0.00928337499499,-0.00674181478098,-0.9992800951
1546561952714322900,355,1546561952714170061,world,0.00397868501022,0.0341563150287,0.0232251752168,0.0357232429087,0.00968531146646,-0.00656127044931,-0.999293327332
1546561952723531459,356,1546561952723391325,world,0.00395701592788,0.0340915992856,0.0231228824705,0.0367145203054,0.00824111420661,-0.0065370099619,-0.999270439148
1546561952723648777,357,1546561952723429343,world,0.00394190056249,0.0340615548193,0.023045996204,0.0373655334115,0.00762645015493,-0.00654538860545,-0.999251127243
1546561952733841351,358,1546561952733667518,world,0.00393577478826,0.0340415537357,0.0229924079031,0.0378730632365,0.0066876206547,-0.0065283216536,-0.999238848686
1546561952733865256,359,1546561952733692416,world,0.00396056985483,0.0341068431735,0.0231033544987,0.0368099957705,0.0075555886142,-0.00643499661237,-0.999273061752
1546561952744071462,360,1546561952743907678,world,0.00397777883336,0.0341484583914,0.0231865867972,0.0361627414823,0.00838832557201,-0.00635302299634,-0.999290585518
1546561952744122409,361,1546561952743952097,world,0.00396507093683,0.034090988338,0.0230914037675,0.0368145480752,0.00806854479015,-0.00639557978138,-0.999269127846
