%time,field.header.seq,field.header.stamp,field.header.frame_id,field.pose.position.x,field.pose.position.y,field.pose.position.z,field.pose.orientation.x,field.pose.orientation.y,field.pose.orientation.z,field.pose.orientation.w
1546562443045537007,0,1546562443045098969,world,-0.00417051184922,0.0344366505742,0.0235964562744,0.0310030896217,0.0140803763643,-0.00441161869094,-0.999410390854
1546562443045584177,1,1546562443045145819,world,-0.00416907062754,0.0344387516379,0.0235844329,0.0310919415206,0.0139261633158,-0.00440775696188,-0.999409794807
1546562443045610770,2,1546562443045245568,world,-0.00416034460068,0.0344350934029,0.0235872231424,0.0312911048532,0.0139609221369,-0.00423086714,-0.999403953552
1546562443056120505,3,1546562443055715429,world,-0.00416757306084,0.0344350412488,0.0235784780234,0.0312342457473,0.0141048058867,-0.00438019866124,-0.999402999878
1546562443056266753,4,1546562443055758888,world,-0.00416816351935,0.0344298630953,0.0235774014145,0.0314214229584,0.0141074545681,-0.00435993960127,-0.999397158623
1546562443065417541,5,1546562443065034162,world,-0.00418394291773,0.0344297289848,0.023587288335,0.0313461050391,0.0133970696479,-0.00433911429718,-0.99940943718
1546562443075754307,6,1546562443075338031,world,-0.00418256502599,0.034423802048,0.023591818288,0.0312693938613,0.0132908271626,-0.00439336942509,-0.999413013458
1546562443075815110,8,1546562443075397938,world,-0.00415833247826,0.0344268791378,0.0235845521092,0.0311899073422,0.0142339542508,-0.00411936175078,-0.999403715134
1546562443086038399,9,1546562443085717103,world,-0.00415739277378,0.0344199277461,0.0235925409943,0.0310520809144,0.013854929246,-0.00411826558411,-0.999413251877
1546562443086068289,10,1546562443085765010,world,-0.00415339926258,0.0344236493111,0.0235776603222,0.0313182063401,0.0136916302145,-0.00412703445181,-0.999407172203
1546562443095460657,11,1546562443095084350,world,-0.00416077487171,0.0344209782779,0.0235785804689,0.0311993472278,0.0138263823465,-0.00417001219466,-0.999408841133
1546562443095600632,12,1546562443095125888,world,-0.004163577687,0.0344239883125,0.0235870145261,0.0312245637178,0.0136437173933,-0.0040813437663,-0.9994109869
1546562443105805328,13,1546562443105380251,world,-0.00416079489514,0.0344271622598,0.0235763546079,0.0312283225358,0.0143900411204,-0.00422336207703,-0.999399781227
1546562443105839793,14,1546562443105416380,world,-0.0041569606401,0.0344317816198,0.0235707759857,0.0313832648098,0.0151226501912,-0.00425840821117,-0.999384045601
1546562443116074539,15,1546562443115659414,world,-0.00415487913415,0.0344311669469,0.0235722903162,0.0313473902643,0.0150831183419,-0.00422854721546,-0.99938583374
1546562443116119789,16,1546562443115704985,world,-0.00415156455711,0.0344398915768,0.0235726758838,0.0312619842589,0.0147544713691,-0.00422786222771,-0.999393463135
1546562443125238800,17,1546562443124955778,world,-0.00414706440642,0.0344362482429,0.0235704723746,0.0314497947693,0.0147278849036,-0.0042481678538,-0.999387860298
1546562443135474121,18,1546562443135197115,world,-0.00414778292179,0.0344394631684,0.023580763489,0.0313951261342,0.0144570991397,-0.00425050873309,-0.999393463135
1546562443135530444,19,1546562443135227517,world,-0.00415888894349,0.0344324372709,0.0235797464848,0.0313556157053,0.0143032083288,-0.0043226275593,-0.999396681786
1546562443145689218,20,1546562443145466871,world,-0.00416115066037,0.0344267077744,0.0235783550888,0.0313277505338,0.014218644239,-0.00434976583347,-0.999398589134
1546562443145710819,22,1546562443145518649,world,-0.0041728336364,0.0344245806336,0.023578139022,0.0312045700848,0.0139571800828,-0.00439844513312,-0.99940598011
1546562443156027968,23,1546562443155750803,world,-0.00418173149228,0.0344206616282,0.0235978830606,0.0312094651163,0.0133254015818,-0.0043428670615,-0.999414682388
1546562443156128741,24,1546562443155776788,world,-0.00417333608493,0.034425009042,0.0235996972769,0.0311661809683,0.0137716066092,-0.00430607004091,-0.999410152435
1546562443165198597,25,1546562443165005948,world,-0.00417122105137,0.0344296321273,0.0236031077802,0.0311303250492,0.0138312038034,-0.0043404372409,-0.999410271645
1546562443175490082,26,1546562443175223989,world,-0.00416967226192,0.0344367846847,0.0236010421067,0.031080968678,0.0138559220359,-0.00430157221854,-0.999411582947
1546562443175553541,27,1546562443175256374,world,-0.00416985107586,0.034435980022,0.0235990136862,0.0310818944126,0.0140098566189,-0.00428017321974,-0.999409556389
1546562443175634761,28,1546562443175344346,world,-0.00416386500001,0.0344366021454,0.0235957168043,0.0310689006001,0.0142638590187,-0.00426381500438,-0.999406456947
1546562443185732924,29,1546562443185569012,world,-0.00416138023138,0.0344328433275,0.0235956143588,0.0311688389629,0.014031784609,-0.00426814705133,-0.999406576157
1546562443185898372,30,1546562443185636791,world,-0.00416579842567,0.034441716969,0.023588500917,0.031266219914,0.0140286069363,-0.00427656620741,-0.999403476715
1546562443194933730,31,1546562443194799931,world,-0.00416470458731,0.0344354808331,0.0235785339028,0.0313034690917,0.0143703939393,-0.00425676535815,-0.99939763546
1546562443205216350,32,1546562443204974770,world,-0.00416271900758,0.0344432964921,0.0235814545304,0.0312088914216,0.0143994502723,-0.00426201056689,-0.999400138855
1546562443205296386,34,1546562443205019636,world,-0.00415882561356,0.0344315990806,0.0235858224332,0.0310135409236,0.0153298564255,-0.00422612437978,-0.99939250946
1546562443215458872,35,1546562443215215116,world,-0.00416155345738,0.0344393737614,0.0235808193684,0.0311429891735,0.0151757625863,-0.00427157105878,-0.999390602112
1546562443225627438,36,1546562443225420836,world,-0.00416123587638,0.0344370156527,0.0235847029835,0.0311216190457,0.0148145919666,-0.00431813532487,-0.999396562576
1546562443225697778,38,1546562443225464678,world,-0.00415367726237,0.0344428122044,0.0235833860934,0.0311346258968,0.0148072447628,-0.00433694990352,-0.999396204948
1546562443235912330,39,1546562443235691487,world,-0.00415866309777,0.0344431698322,0.0235794875771,0.030983524397,0.0147967552766,-0.00443947222084,-0.999400496483
1546562443235951212,40,1546562443235744578,world,-0.0041609313339,0.0344369485974,0.0235844403505,0.030762437731,0.0150818470865,-0.00454241270199,-0.99940264225
1546562443245114833,41,1546562443244958217,world,-0.00416483916342,0.034440740943,0.0235869176686,0.0308819264174,0.0149447117001,-0.00450759194791,-0.999401211739
1546562443255396077,42,1546562443255171522,world,-0.00415988638997,0.0344431325793,0.0235844831914,0.0310574676841,0.014672013931,-0.00433259317651,-0.999400615692
1546562443255418606,43,1546562443255200611,world,-0.00415210658684,0.0344489663839,0.0235920064151,0.0311004556715,0.0149615136907,-0.00430274382234,-0.999395012856
1546562443265658984,44,1546562443265434332,world,-0.00416110642254,0.0344365760684,0.0235862955451,0.0311323497444,0.0144271692261,-0.00438685342669,-0.999401569366
1546562443265760365,45,1546562443265477567,world,-0.0041720457375,0.0344351828098,0.0235728025436,0.0313382446766,0.0138246230781,-0.00432096514851,-0.999403953552
1546562443275968741,46,1546562443275707000,world,-0.00416084658355,0.034431360662,0.023569079116,0.031219214201,0.0145072247833,-0.00435801083222,-0.999397873878
1546562443276022727,47,1546562443275732697,world,-0.00414877338335,0.034432798624,0.0235762223601,0.0312274731696,0.01460780669,-0.00432169670239,-0.999396204948
1546562443276215505,48,1546562443275787004,world,-0.00415387842804,0.0344308279455,0.0235887225717,0.0311258472502,0.0146390972659,-0.00428603962064,-0.999399065971
1546562443285165675,49,1546562443285014820,world,-0.00415307236835,0.03442639485,0.0235755592585,0.0311565995216,0.0144100496545,-0.00419248826802,-0.999401926994
1546562443295415205,50,1546562443295237853,world,-0.00416178768501,0.0344405658543,0.0235781595111,0.0311487112194,0.0143989138305,-0.00425888272002,-0.999402046204
1546562443295452871,51,1546562443295265566,world,-0.00415663281456,0.0344459153712,0.0235651303083,0.0312027614564,0.0148012554273,-0.00423638243228,-0.999394536018
1546562443305692865,52,1546562443305501656,world,-0.00415926612914,0.0344406105578,0.0235626604408,0.0312257539481,0.0145360622555,-0.00423063570634,-0.999397754669
1546562443305723523,53,1546562443305525625,world,-0.00416101841256,0.0344313085079,0.0235716421157,0.0310892220587,0.0145297804847,-0.00428101560101,-0.999401926994
1546562443305744484,54,1546562443305593244,world,-0.00417350232601,0.0344321019948,0.0235814098269,0.0311123728752,0.0140419006348,-0.00429062033072,-0.999408125877
1546562443314932329,55,1546562443314742880,world,-0.00417722482234,0.0344320982695,0.0235908459872,0.0311401002109,0.0140592288226,-0.00429614121094,-0.999406933784
1546562443325155714,56,1546562443324960057,world,-0.0041692298837,0.0344295091927,0.0236042626202,0.0311062578112,0.014550738968,-0.00441367318854,-0.999400496483
1546562443325194084,57,1546562443324984058,world,-0.0041663502343,0.0344320051372,0.0235938373953,0.0313054770231,0.0146003598347,-0.00438262522221,-0.999393701553
1546562443335400444,58,1546562443335208499,world,-0.00416546687484,0.0344276614487,0.0235939696431,0.031182968989,0.0140474177897,-0.00428273621947,-0.999405860901
1546562443335430238,60,1546562443335247861,world,-0.00416336813942,0.0344307459891,0.0235852189362,0.0312039107084,0.0143076777458,-0.00428443169221,-0.999401450157
1546562443345819711,61,1546562443345494735,world,-0.00416268454865,0.0344278402627,0.0235936827958,0.0310634076595,0.0145784709603,-0.00426962086931,-0.999402046204
1546562443345878850,62,1546562443345603764,world,-0.00415950035676,0.0344285294414,0.0235777553171,0.0310224331915,0.014480589889,-0.00429134303704,-0.999404668808
1546562443355175341,63,1546562443354807227,world,-0.00416279118508,0.034417707473,0.0235770847648,0.0310293193907,0.0144999427721,-0.00429326621816,-0.999404072762
1546562443367423754,64,1546562443365062006,world,-0.00416846899316,0.0344171077013,0.023577388376,0.0311591569334,0.0141659053043,-0.00426865601912,-0.999405026436
1546562443367480365,65,1546562443365106264,world,-0.00417105713859,0.0344300940633,0.0235789436847,0.0312326177955,0.0145295672119,-0.0042722793296,-0.999397397041
1546562443375753030,66,1546562443375328913,world,-0.00416899705306,0.034433607012,0.0235902238637,0.0312841907144,0.0141868125647,-0.00436078384519,-0.999400377274
1546562443375825289,68,1546562443375374195,world,-0.00416831905022,0.0344360619783,0.0235874690115,0.0312584638596,0.0142702804878,-0.00435291184112,-0.999400019646
1546562443386018401,69,1546562443385652399,world,-0.00416495045647,0.0344378910959,0.0235839635134,0.0311945974827,0.0138853387907,-0.00427987333387,-0.99940776825
1546562443386037890,70,1546562443385681680,world,-0.00415422674268,0.0344378203154,0.0235822740942,0.0309931859374,0.0142430113629,-0.00423008529469,-0.999409198761
1546562443395187014,71,1546562443394896311,world,-0.00416253646836,0.0344410091639,0.0235709827393,0.0311767943203,0.0141418436542,-0.00425647106022,-0.999404788017
1546562443405569766,72,1546562443405160946,world,-0.00416346080601,0.0344397649169,0.0235729906708,0.0310333259404,0.0144667709246,-0.00434836698696,-0.999404191971
1546562443405638474,74,1546562443405214805,world,-0.00414731213823,0.0344416834414,0.023564696312,0.0311142578721,0.0147417429835,-0.00424249330536,-0.999398112297
1546562443415806400,75,1546562443415450575,world,-0.00415269611403,0.0344434790313,0.0235771462321,0.0311794728041,0.0143578993157,-0.00424973107874,-0.999401688576
1546562443415862243,76,1546562443415483152,world,-0.0041495654732,0.034447722137,0.0235767066479,0.0312081873417,0.0146226314828,-0.0042658271268,-0.999396920204
1546562443426011608,77,1546562443425660967,world,-0.00416565313935,0.0344415642321,0.0235800258815,0.0312566272914,0.014568997547,-0.00437470665202,-0.999395728111
1546562443426056346,78,1546562443425697513,world,-0.00416889414191,0.0344362035394,0.0235965531319,0.0310384184122,0.0143113657832,-0.0043783984147,-0.999406218529
1546562443435146939,79,1546562443434900911,world,-0.0041631096974,0.0344401821494,0.0235839895904,0.0311129633337,0.0144874425605,-0.00438031833619,-0.999401330948
1546562443445469817,80,1546562443445126024,world,-0.00416781567037,0.0344450846314,0.0235876813531,0.0310490652919,0.0140586001799,-0.00440437998623,-0.99940931797
1546562443445599872,81,1546562443445157290,world,-0.00416649039835,0.0344373770058,0.0235792901367,0.0311483200639,0.0145294368267,-0.0043957917951,-0.999399542809
1546562443445638018,82,1546562443445238382,world,-0.00417178124189,0.0344324298203,0.0235872212797,0.0311200432479,0.0142655447125,-0.00441386550665,-0.999404191971
1546562443456058660,83,1546562443455645904,world,-0.00417135329917,0.0344341285527,0.02359014377,0.0313170813024,0.0139593780041,-0.0044115325436,-0.999402284622
1546562443456110983,84,1546562443455679666,world,-0.00416415231302,0.034431219101,0.023581340909,0.0313798524439,0.014434707351,-0.00436728820205,-0.999393820763
1546562443465245034,85,1546562443464966140,world,-0.00415751477703,0.0344352088869,0.0235809963197,0.0314074829221,0.0145291425288,-0.00438611581922,-0.999391436577
1546562443475490404,86,1546562443475183381,world,-0.00415755715221,0.0344222486019,0.0235846657306,0.0311655513942,0.0147052323446,-0.0042971521616,-0.999396920204
1546562443475537959,87,1546562443475221239,world,-0.00415756879374,0.0344270318747,0.0235768649727,0.0311794597656,0.0144384810701,-0.00426316633821,-0.999400496483
1546562443485951945,88,1546562443485530228,world,-0.00416661333293,0.0344288237393,0.0235698912293,0.0312604419887,0.0144247375429,-0.00431829504669,-0.999397873878
1546562443485997739,89,1546562443485562774,world,-0.0041647083126,0.0344264023006,0.0235748440027,0.0312039330602,0.0146750891581,-0.00428156508133,-0.999396204948
1546562443486051886,90,1546562443485621081,world,-0.00416493741795,0.0344384200871,0.0235744845122,0.031282350421,0.0150542184711,-0.00443438487127,-0.999387383461
1546562443495035882,91,1546562443494772381,world,-0.00416788831353,0.0344300530851,0.0235867258161,0.0310787651688,0.0146017726511,-0.00444689253345,-0.999400377274
1546562443505248066,92,1546562443505006358,world,-0.00416131736711,0.0344271063805,0.0235649421811,0.031184270978,0.0153070911765,-0.00442165276036,-0.999386668205
1546562443505273315,93,1546562443505040568,world,-0.00414938572794,0.0344285815954,0.0235649030656,0.0312275644392,0.015435801819,-0.0042633973062,-0.999384045601
1546562443505284804,94,1546562443505099099,world,-0.0041473521851,0.0344337187707,0.0235610678792,0.0312367379665,0.0156249590218,-0.0043848962523,-0.999380350113
1546562443515598657,95,1546562443515341013,world,-0.00415877113119,0.0344324931502,0.0235702581704,0.0311941094697,0.015066687949,-0.00443008262664,-0.999390006065
1546562443525861436,96,1546562443525612912,world,-0.00415544351563,0.0344373174012,0.0235689617693,0.0312547832727,0.0144750280306,-0.00432101078331,-0.999397277832
1546562443525881405,97,1546562443525646226,world,-0.0041615171358,0.0344376824796,0.0235908329487,0.0310981832445,0.0146970031783,-0.00436747726053,-0.999398827553
1546562443525950785,98,1546562443525722293,world,-0.00415706215426,0.0344417095184,0.0235881395638,0.0310502797365,0.0146722150967,-0.0043616485782,-0.999400615692
1546562443535408532,99,1546562443534954845,world,-0.00415976904333,0.0344427004457,0.0235953796655,0.0309608262032,0.0143958488479,-0.00439420342445,-0.999407291412
1546562443545786196,100,1546562443545317117,world,-0.00417055236176,0.0344375669956,0.0235928986222,0.0309281591326,0.0142834149301,-0.0044245319441,-0.999409794807
1546562443545844471,102,1546562443545373632,world,-0.00416848389432,0.0344466380775,0.0235991794616,0.0311308223754,0.0150941601023,-0.00441063754261,-0.999391674995
1546562443556079633,103,1546562443555726015,world,-0.00416373740882,0.0344425216317,0.0235835164785,0.0311946421862,0.0149090830237,-0.00434304075316,-0.999392747879
1546562443556106130,104,1546562443555786018,world,-0.00415792595595,0.0344482474029,0.0235735736787,0.0312006566674,0.014946798794,-0.00432481663302,-0.999392032623
1546562443565388893,105,1546562443565099662,world,-0.00416238466278,0.0344512984157,0.0235871300101,0.031042560935,0.0151731148362,-0.00443798443303,-0.999393105507
1546562443575637879,106,1546562443575415532,world,-0.00417007924989,0.0344491265714,0.0235764198005,0.0312523320317,0.0147179355845,-0.00450590578839,-0.999393105507
1546562443575798175,107,1546562443575462926,world,-0.00417001917958,0.0344406999648,0.0235833115876,0.0311764851213,0.0143502345309,-0.00444786483422,-0.99940097332
1546562443575898596,108,1546562443575522833,world,-0.00417164433748,0.0344404913485,0.0235774964094,0.0311561916023,0.0144744869322,-0.00451701926067,-0.999399542809
1546562443585127500,109,1546562443584779547,world,-0.00416226638481,0.0344289466739,0.0235745497048,0.0312963798642,0.0149616869166,-0.00432489765808,-0.999388813972
1546562443595474379,110,1546562443595170780,world,-0.00415154639632,0.0344263091683,0.0235774628818,0.0311286076903,0.015345254913,-0.00434590224177,-0.999388217926
1546562443595521933,111,1546562443595253984,world,-0.0041536455974,0.0344231165946,0.0235702823848,0.0311775486916,0.0151792457327,-0.0043353359215,-0.99938929081
1546562443595571152,112,1546562443595280577,world,-0.00415692804381,0.0344292223454,0.0235805604607,0.0310884900391,0.0146788582206,-0.00437448825687,-0.99939930439
1546562443605812873,113,1546562443605576606,world,-0.00416287081316,0.034432195127,0.0235796384513,0.0312043987215,0.0148910935968,-0.00433040224016,-0.999392747879
1546562443605875661,114,1546562443605671874,world,-0.00417356705293,0.0344370827079,0.0235960781574,0.0310844406486,0.0143278436735,-0.00439971964806,-0.999404430389
1546562443615354113,115,1546562443615118101,world,-0.00415956834331,0.0344363451004,0.023574097082,0.0312544815242,0.0141625832766,-0.00431122398004,-0.999401807785
1546562443625673950,116,1546562443625427218,world,-0.00415958883241,0.0344328209758,0.0235796682537,0.0311196092516,0.014283423312,-0.00426243431866,-0.999404549599
1546562443625728225,117,1546562443625499862,world,-0.00416750973091,0.0344278588891,0.0235869549215,0.0312696732581,0.0138460220769,-0.00425086915493,-0.999406099319
1546562443625752834,118,1546562443625521303,world,-0.0041664885357,0.034436441958,0.0235840380192,0.0312055591494,0.0136939454824,-0.00424408866093,-0.999410152435
1546562443635948538,119,1546562443635753200,world,-0.0041639613919,0.0344366431236,0.023583130911,0.031136540696,0.0141924787313,-0.00434960145503,-0.999404907227
1546562443635987772,120,1546562443635805907,world,-0.00417149858549,0.034436468035,0.0235953237861,0.0310293082148,0.0144214835018,-0.00441322801635,-0.999404788017
1546562443645241605,121,1546562443645043035,world,-0.00416073109955,0.034434620291,0.0235830191523,0.0311654414982,0.0144420973957,-0.00433871289715,-0.999400496483
1546562443645343242,122,1546562443645099550,world,-0.00415394222364,0.0344402007759,0.0235722213984,0.0312851183116,0.0143219595775,-0.00430693197995,-0.999398708344
1546562443655548130,123,1546562443655330135,world,-0.00415326468647,0.0344321765006,0.0235683973879,0.0312788449228,0.014441087842,-0.00430448679253,-0.999397158623
1546562443665808157,124,1546562443665626420,world,-0.00415221136063,0.0344377420843,0.0235754549503,0.0314090400934,0.0146611435339,-0.00427430775017,-0.999390006065
1546562443665884097,125,1546562443665687959,world,-0.00416246568784,0.0344385094941,0.0235664881766,0.0314636155963,0.0137851098552,-0.00422248663381,-0.99940097332
1546562443675354932,126,1546562443675118217,world,-0.00416631344706,0.034430693835,0.0235910192132,0.0312176533043,0.0141082070768,-0.00427724281326,-0.999403953552
1546562443675394582,127,1546562443675213998,world,-0.00416462589055,0.0344420336187,0.0235882159323,0.0311039313674,0.0143814533949,-0.00429864227772,-0.999403476715
1546562443685758998,128,1546562443685582894,world,-0.00415696576238,0.0344386659563,0.0235950369388,0.030902735889,0.0150977699086,-0.00438963389024,-0.999398827553
1546562443685817177,129,1546562443685654737,world,-0.00415115011856,0.0344378948212,0.0235884077847,0.0309814866632,0.0153159666806,-0.0043496126309,-0.999393224716
1546562443685917438,130,1546562443685773431,world,-0.00416559912264,0.0344401188195,0.0235911924392,0.0310944709927,0.0147624118254,-0.00442351168022,-0.99939763546
1546562443695426612,131,1546562443695189160,world,-0.00416166940704,0.0344405323267,0.0235801134259,0.0311534050852,0.0146446926519,-0.00436506560072,-0.999397873878
1546562443705757362,132,1546562443705556616,world,-0.00415766704828,0.0344357267022,0.0235734768212,0.0313292443752,0.0147483609617,-0.0043414523825,-0.99939095974
1546562443705796052,133,1546562443705620555,world,-0.00414925673977,0.0344431512058,0.0235625989735,0.0313507728279,0.0147661175579,-0.00434464821592,-0.999390006065
1546562443715295817,134,1546562443714978490,world,-0.0041655828245,0.0344407111406,0.0235807467252,0.0312433522195,0.0142472591251,-0.00437001697719,-0.999400734901
1546562443715342956,135,1546562443715091999,world,-0.004164788872,0.0344293676317,0.0235836300999,0.0311800092459,0.0137407900766,-0.00429528392851,-0.999410152435
1546562443725755790,136,1546562443725389500,world,-0.00417108088732,0.0344388671219,0.0235873442143,0.0311890877783,0.0134953493252,-0.00436143530533,-0.999412894249
1546562443725784463,137,1546562443725447455,world,-0.00416823616251,0.0344348140061,0.0235768835992,0.0313053913414,0.0134573867545,-0.00430829403922,-0.999410033226
1546562443725800016,138,1546562443725467168,world,-0.004162134137,0.034440331161,0.0235692411661,0.0313423760235,0.0140011599287,-0.0042433720082,-0.999401688576
1546562443736054891,139,1546562443735769981,world,-0.00417136959732,0.0344325900078,0.023576317355,0.0313624069095,0.013683420606,-0.004247920122,-0.999405384064
1546562443736089356,140,1546562443735808991,world,-0.00416896864772,0.0344391949475,0.0235786512494,0.0312173813581,0.013940256089,-0.00429058261216,-0.999406218529
1546562443745338741,141,1546562443745130859,world,-0.00417110463604,0.0344330407679,0.0235770810395,0.0311785452068,0.0139305163175,-0.00435557588935,-0.999407291412
1546562443755622225,142,1546562443755395526,world,-0.00416268361732,0.0344343148172,0.0235822126269,0.0310414433479,0.0144654326141,-0.00444734096527,-0.999403595924
1546562443755838268,143,1546562443755486123,world,-0.00416551018134,0.0344340987504,0.0235815942287,0.0310768019408,0.013873597607,-0.00436543114483,-0.999411225319
1546562443755876638,144,1546562443755550638,world,-0.00416083959863,0.0344324223697,0.0235803704709,0.0310946796089,0.014093301259,-0.00436158198863,-0.99940764904
1546562443765090629,145,1546562443764914620,world,-0.00415807915851,0.0344297885895,0.0235829818994,0.031042445451,0.0145405093208,-0.00442184787244,-0.999402523041
1546562443775450949,146,1546562443775241114,world,-0.00416316790506,0.0344417653978,0.0235895048827,0.0310209561139,0.0145373856649,-0.00438698194921,-0.999403476715
1546562443775556618,147,1546562443775399106,world,-0.00417161965743,0.0344373025,0.0235851425678,0.031223712489,0.0139213092625,-0.00440723076463,-0.999405741692
1546562443775832952,148,1546562443775591884,world,-0.00417088391259,0.0344379656017,0.0235847346485,0.0312674157321,0.0142438011244,-0.0043309009634,-0.999400258064
1546562443785174277,149,1546562443784955386,world,-0.00417367788032,0.0344394147396,0.0235920324922,0.0313343070447,0.0144230481237,-0.00429295981303,-0.999395728111
1546562443795522692,150,1546562443795258551,world,-0.00416791625321,0.0344393737614,0.0235906541348,0.0312036350369,0.0146252457052,-0.00430605979636,-0.999396800995
1546562443795554086,151,1546562443795299545,world,-0.00416054250672,0.0344270654023,0.0235729236156,0.0312391836196,0.0148793458939,-0.00431645195931,-0.999391913414
1546562443805916422,152,1546562443805589621,world,-0.0041610118933,0.034432336688,0.0235711801797,0.0313096009195,0.0143419280648,-0.00420831376687,-0.999397993088
1546562443805950023,153,1546562443805664249,world,-0.0041576270014,0.0344246141613,0.0235726721585,0.0312896482646,0.014290381223,-0.00420747417957,-0.999399423599
1546562443805965928,154,1546562443805702299,world,-0.00415453361347,0.0344323292375,0.0235756151378,0.0312761329114,0.0145725067705,-0.00424387631938,-0.999395608902
1546562443815445596,155,1546562443815224433,world,-0.00414869608358,0.0344348475337,0.0235624089837,0.0313331857324,0.0148765854537,-0.00418871128932,-0.999389529228
1546562443825822653,156,1546562443825497869,world,-0.0041503966786,0.0344343930483,0.0235619731247,0.0311911255121,0.014599875547,-0.00423175562173,-0.999397873878
1546562443825844286,157,1546562443825562032,world,-0.00415186304599,0.0344359539449,0.0235612373799,0.0312293432653,0.0138517674059,-0.00414802785963,-0.99940764904
1546562443825895168,158,1546562443825584785,world,-0.004154631868,0.034429948777,0.0235670208931,0.0312480442226,0.0140290018171,-0.00414639525115,-0.999404668808
1546562443835304465,159,1546562443835069542,world,-0.00415742304176,0.0344239138067,0.0235619917512,0.0312873125076,0.0143347661942,-0.00417247321457,-0.999398946762
1546562443835322482,160,1546562443835147689,world,-0.00416437163949,0.0344346240163,0.023573756218,0.0312939360738,0.0142811704427,-0.00426737545058,-0.999399185181
1546562443845707571,161,1546562443845441222,world,-0.00416071573272,0.034434877336,0.0235768649727,0.0312952697277,0.014322957024,-0.00426541408524,-0.999398469925
1546562443855949421,162,1546562443855780549,world,-0.00415834179148,0.034437790513,0.0235754419118,0.0313270613551,0.0146372430027,-0.00428128987551,-0.999392867088
1546562443856048978,163,1546562443855939180,world,-0.00415866263211,0.0344346612692,0.0235686525702,0.0313073433936,0.0145282689482,-0.0042482111603,-0.999395251274
1546562443856211482,164,1546562443856044498,world,-0.00415435433388,0.0344411954284,0.023565294221,0.0312972590327,0.0139221828431,-0.004207003396,-0.99940431118
1546562443865563592,165,1546562443865389375,world,-0.00415754923597,0.0344406105578,0.0235672164708,0.031313277781,0.0140637392178,-0.00425285566598,-0.999401688576
1546562443875885094,166,1546562443875707133,world,-0.0041552297771,0.0344416759908,0.0235744584352,0.0311912484467,0.0141484821215,-0.00425243377686,-0.99940431118
1546562443875987115,167,1546562443875748703,world,-0.00415823794901,0.034445848316,0.0235758461058,0.0312307588756,0.0143642304465,-0.00435185199603,-0.999399542809
1546562443876089904,168,1546562443875920711,world,-0.00415972713381,0.0344353877008,0.0235768500715,0.031168974936,0.0143383508548,-0.00438507040963,-0.999401688576
1546562443885356249,169,1546562443885206706,world,-0.00415798183531,0.0344429723918,0.0235781893134,0.0311591401696,0.0148850325495,-0.00437375763431,-0.999394059181
1546562443885386235,170,1546562443885267189,world,-0.00415882794186,0.034444399178,0.0235763471574,0.0311686247587,0.014617068693,-0.00428533367813,-0.999398112297
1546562443895719097,171,1546562443895574290,world,-0.00416785012931,0.0344397872686,0.023578055203,0.0312687978148,0.0141184544191,-0.00434124656022,-0.999401926994
1546562443895737786,172,1546562443895634837,world,-0.00416627991945,0.0344307869673,0.0235727541149,0.0313392207026,0.0138132525608,-0.00430854037404,-0.999404072762
1546562443905187533,173,1546562443904991779,world,-0.00416078744456,0.0344268269837,0.0235709100962,0.0313657224178,0.0138483503833,-0.00433338014409,-0.99940264225
1546562443915551917,174,1546562443915362980,world,-0.00416102074087,0.0344273708761,0.0235610045493,0.0313324518502,0.0143023645505,-0.00431083422154,-0.999397397041
1546562443915580174,175,1546562443915417926,world,-0.00416615093127,0.0344275459647,0.0235684495419,0.0313621237874,0.013622074388,-0.00419676536694,-0.999406456947
1546562443915681043,176,1546562443915564398,world,-0.00416186312214,0.0344251431525,0.0235814619809,0.0312661379576,0.0137595208362,-0.0042737131007,-0.999407291412
1546562443924956318,177,1546562443924762580,world,-0.00414833286777,0.0344318710268,0.0235880352557,0.0312105678022,0.0141903040931,-0.00427784631029,-0.999402999878
1546562443935225401,178,1546562443935079250,world,-0.0041554197669,0.0344392210245,0.0235831867903,0.0312501825392,0.0144314169884,-0.00430991593748,-0.999398112297
1546562443935271643,179,1546562443935133972,world,-0.00415708590299,0.034433953464,0.023575803265,0.0311333909631,0.014317503199,-0.00430001504719,-0.999403476715
1546562443935409410,180,1546562443935274427,world,-0.00415686657652,0.0344370603561,0.0235840436071,0.0310165733099,0.0145081011578,-0.00429619802162,-0.999404430389
1546562443945768514,181,1546562443945584728,world,-0.00415717437863,0.0344431698322,0.0235816799104,0.0311570763588,0.0145353134722,-0.00425279280171,-0.999399781227
1546562443945795107,182,1546562443945642203,world,-0.00416213087738,0.0344390161335,0.0235739313066,0.0312014762312,0.0144764790311,-0.0042674485594,-0.999399185181
1546562443955316377,183,1546562443955088398,world,-0.00415967404842,0.0344383232296,0.02357410267,0.0311860535294,0.0136195207015,-0.00420116772875,-0.999412059784
1546562443965785566,184,1546562443965458414,world,-0.00414929911494,0.0344436503947,0.0235668122768,0.0311890151352,0.0141507191584,-0.00419244123623,-0.999404549599
1546562443965811680,185,1546562443965495216,world,-0.00414869654924,0.0344257839024,0.023556124419,0.0312859229743,0.0136923575774,-0.00415015779436,-0.999408125877
1546562443965903748,186,1546562443965548819,world,-0.00415001949295,0.0344373546541,0.0235736332834,0.0312341190875,0.0136267496273,-0.00410006241873,-0.999410867691
1546562443975086314,187,1546562443974808316,world,-0.00415703514591,0.0344322435558,0.0235708802938,0.0311422906816,0.0137760294601,-0.0042918715626,-0.999410867691
1546562443985425896,188,1546562443985127962,world,-0.00415583420545,0.0344280339777,0.0235666483641,0.0311604831368,0.0135252615437,-0.00416957912967,-0.999414205551
1546562443985471211,189,1546562443985195933,world,-0.00415648007765,0.0344290360808,0.0235691647977,0.0311466101557,0.0139968376607,-0.00427531078458,-0.99940776825
1546562443985511149,190,1546562443985219230,world,-0.00415398087353,0.0344328097999,0.0235568471253,0.031327649951,0.0146022196859,-0.00425762403756,-0.999393463135
1546562443995668738,191,1546562443995501178,world,-0.0041537610814,0.0344384051859,0.0235567651689,0.0313356928527,0.0144499819726,-0.00425293156877,-0.999395489693
1546562443995689091,192,1546562443995581406,world,-0.00416141189635,0.0344307348132,0.0235699508339,0.0312976762652,0.0140655506402,-0.00433550775051,-0.999401807785
1546562444005050194,193,1546562444004889258,world,-0.00417060637847,0.0344318859279,0.0235761869699,0.0312930420041,0.0136776706204,-0.00428932858631,-0.999407529831
1546562444015349518,194,1546562444015161893,world,-0.00416280468926,0.0344347879291,0.0235690195113,0.0313877724111,0.0135954795405,-0.00421041529626,-0.99940598011
1546562444015384080,195,1546562444015226888,world,-0.0041619502008,0.0344384685159,0.0235795062035,0.0312922410667,0.0139719899744,-0.00430483557284,-0.999403357506
1546562444025661004,196,1546562444025511204,world,-0.00416604010388,0.0344393625855,0.0235747080296,0.0313963443041,0.0141431326047,-0.00436961371452,-0.999397397041
1546562444025681037,197,1546562444025562695,world,-0.004170877859,0.0344362482429,0.0235724411905,0.0315012522042,0.0138217173517,-0.00419555837288,-0.999399423599
1546562444025753264,198,1546562444025583112,world,-0.00417062547058,0.0344427339733,0.0235707685351,0.0315225869417,0.0141809592023,-0.0042624543421,-0.999393343925
1546562444034947926,199,1546562444034787118,world,-0.00416230177507,0.0344386138022,0.0235586706549,0.0315338745713,0.0139895183966,-0.00426535354927,-0.999395728111
1546562444045298902,200,1546562444045088811,world,-0.00415508123115,0.0344391800463,0.0235572569072,0.0313518606126,0.0146199641749,-0.00426168227568,-0.999392390251
1546562444045336696,201,1546562444045153358,world,-0.00415021926165,0.0344438813627,0.0235471148044,0.0313751809299,0.0149332489818,-0.0042300526984,-0.999387264252
1546562444055626196,202,1546562444055436298,world,-0.00414853403345,0.034450955689,0.023555630818,0.031372204423,0.0151652544737,-0.00421395199373,-0.999383926392
1546562444055680086,203,1546562444055492525,world,-0.00415430776775,0.0344483926892,0.0235474575311,0.0313786193728,0.0148880518973,-0.00425301073119,-0.999387741089
1546562444055746938,204,1546562444055513678,world,-0.00415126373991,0.0344491824508,0.0235354024917,0.0314024798572,0.0150238350034,-0.00419913977385,-0.999385118484
1546562444064960673,205,1546562444064757207,world,-0.00415619462729,0.034446388483,0.02354991436,0.0312536805868,0.0145318433642,-0.00422720098868,-0.999396920204
1546562444075265534,206,1546562444075091733,world,-0.00416197534651,0.0344388671219,0.0235546957701,0.0311255790293,0.0144350733608,-0.00426967022941,-0.999402165413
1546562444075428742,207,1546562444075192570,world,-0.00416228035465,0.0344342887402,0.0235600639135,0.0310995317996,0.0145725738257,-0.00427537318319,-0.99940097332
1546562444075487625,208,1546562444075234140,world,-0.00416037859395,0.0344422794878,0.0235698185861,0.0311608240008,0.0146025009453,-0.00422601494938,-0.999398827553
1546562444085671584,209,1546562444085531193,world,-0.00415244698524,0.0344315543771,0.023561662063,0.0312626063824,0.0150884212926,-0.00426257448271,-0.999388217926
1546562444095048527,210,1546562444094799267,world,-0.0041553163901,0.034434709698,0.0235607419163,0.0312247574329,0.014732087031,-0.00422029430047,-0.999394893646
1546562444095074608,211,1546562444094912520,world,-0.00415948685259,0.0344312116504,0.0235527027398,0.031310107559,0.0139407580718,-0.00419034343213,-0.999403715134
1546562444105389614,212,1546562444105170147,world,-0.00415926007554,0.0344294644892,0.0235466938466,0.0315105989575,0.0137487035245,-0.0041408627294,-0.999400377274
1546562444105436368,213,1546562444105230406,world,-0.00415514828637,0.0344340763986,0.0235499609262,0.0314136855304,0.0144008658826,-0.00413963757455,-0.999394178391
1546562444115660905,214,1546562444115491713,world,-0.00416123867035,0.0344294048846,0.0235507357866,0.0313365310431,0.0143001303077,-0.00426238169894,-0.999397516251
1546562444115690730,215,1546562444115539203,world,-0.00416270038113,0.0344314612448,0.0235579498112,0.0313681475818,0.0140105187893,-0.00424186373129,-0.999400734901
1546562444124966037,216,1546562444124786636,world,-0.00415850104764,0.0344229862094,0.0235590394586,0.0312240645289,0.0140663022175,-0.0041766166687,-0.999404788017
1546562444124998230,217,1546562444124846703,world,-0.00416143098846,0.0344318933785,0.0235524754971,0.0312470383942,0.0145760113373,-0.00427094474435,-0.999396324158
1546562444135294035,218,1546562444135120330,world,-0.00416174018756,0.0344346314669,0.0235680099577,0.0311693660915,0.014517115429,-0.00431559002027,-0.999399423599
1546562444135379767,219,1546562444135191054,world,-0.00416021840647,0.0344392433763,0.023562271148,0.0313049703836,0.0144937532023,-0.00429622968659,-0.999395608902
1546562444135403608,220,1546562444135217519,world,-0.00414818944409,0.0344414785504,0.0235491301864,0.0313974432647,0.0146402297541,-0.00427892338485,-0.999390602112
1546562444145680436,221,1546562444145537613,world,-0.00414706813172,0.0344386287034,0.0235544554889,0.0313778184354,0.0149109885097,-0.00422305520624,-0.99938750267
1546562444145701717,222,1546562444145587407,world,-0.00415339600295,0.0344317369163,0.0235572513193,0.0313405394554,0.0142517248169,-0.00415788125247,-0.999398589134
1546562444155076388,223,1546562444154819575,world,-0.0041526327841,0.0344389677048,0.0235454458743,0.0314219407737,0.0141524430364,-0.00411973008886,-0.999397516251
1546562444165261019,224,1546562444165099923,world,-0.00415773503482,0.0344304442406,0.0235486533493,0.0313004218042,0.0144861284643,-0.0042082616128,-0.999396204948
1546562444165309565,225,1546562444165151509,world,-0.00415360135958,0.034432195127,0.0235466901213,0.031434584409,0.0147606404498,-0.00419416837394,-0.999388098717
1546562444175623035,226,1546562444175456786,world,-0.00415089400485,0.0344437807798,0.0235404055566,0.0315812788904,0.0144611513242,-0.00414152024314,-0.999388098717
1546562444175717311,227,1546562444175525686,world,-0.00414977176115,0.0344411432743,0.0235399454832,0.0316022485495,0.0143093559891,-0.00411670934409,-0.999389648438
1546562444175772546,228,1546562444175561559,world,-0.00415379600599,0.0344494879246,0.0235345531255,0.031395483762,0.0141477808356,-0.00419416138902,-0.999398112297
1546562444184944423,229,1546562444184803232,world,-0.00416364194825,0.0344475805759,0.0235515199602,0.0311339870095,0.0139729510993,-0.00430629728362,-0.999408364296
1546562444195300742,230,1546562444195127614,world,-0.00417006900534,0.0344365276396,0.0235528666526,0.0312591232359,0.0137412287295,-0.00435974122956,-0.999407410622
1546562444195325896,231,1546562444195188097,world,-0.00417797872797,0.0344387665391,0.023568591103,0.0311727114022,0.0132378777489,-0.00436777062714,-0.999416828156
1546562444205693064,232,1546562444205496958,world,-0.00418268237263,0.0344348549843,0.0235616825521,0.0310349725187,0.0137681281194,-0.00447990046814,-0.999413490295
1546562444205726217,233,1546562444205525503,world,-0.00417835824192,0.0344269871712,0.0235508605838,0.0312805622816,0.013598125428,-0.00438970467076,-0.999408483505
1546562444205760587,234,1546562444205584130,world,-0.00417371746153,0.0344309508801,0.0235514268279,0.0313670411706,0.014041589573,-0.00435396144167,-0.999399900436
1546562444215235231,235,1546562444214897326,world,-0.00416293134913,0.034445848316,0.0235338974744,0.031537566334,0.0143853984773,-0.00427365163341,-0.999390006065
1546562444225390901,236,1546562444225221580,world,-0.00415493873879,0.0344448052347,0.0235460288823,0.0315345339477,0.0148862786591,-0.00426281383261,-0.999382734299
1546562444225477433,237,1546562444225269007,world,-0.00415922701359,0.0344421900809,0.0235390737653,0.0316076613963,0.0145726362243,-0.00428252154961,-0.999384999275
1546562444225514363,238,1546562444225287568,world,-0.00415860116482,0.0344368517399,0.0235534030944,0.0316078104079,0.014636779204,-0.00427611498162,-0.999384045601
1546562444235817528,239,1546562444235627918,world,-0.00416036089882,0.0344345085323,0.0235467236489,0.0316232889891,0.0143753504381,-0.00419853255153,-0.999387741089
1546562444235892315,240,1546562444235704466,world,-0.00415827194229,0.0344398096204,0.0235502813011,0.0313877686858,0.014926970005,-0.00429727090523,-0.999386668205
1546562444245243849,241,1546562444245053056,world,-0.00416020210832,0.0344374775887,0.0235469080508,0.0314055234194,0.0140155814588,-0.00418019946665,-0.999399781227
1546562444255592840,242,1546562444255406719,world,-0.00416669761762,0.0344444848597,0.0235470868647,0.0313705578446,0.0139942616224,-0.00424168352038,-0.999400854111
1546562444255609257,243,1546562444255483811,world,-0.0041570882313,0.0344459190965,0.0235514566302,0.031399436295,0.0140325566754,-0.00411976873875,-0.999400019646
1546562444266171827,244,1546562444265790336,world,-0.00416267476976,0.0344453491271,0.023544870317,0.0315421260893,0.014199023135,-0.00422379327938,-0.99939262867
1546562444266200756,246,1546562444265840802,world,-0.00415866542608,0.0344405211508,0.0235513132066,0.0313526242971,0.0144064510241,-0.00429010810331,-0.999395370483
1546562444275387098,247,1546562444275155311,world,-0.00415049493313,0.0344345271587,0.0235536042601,0.0313980765641,0.0141539182514,-0.00415744399652,-0.999398112297
1546562444275421724,248,1546562444275183568,world,-0.00415122974664,0.0344385355711,0.02354882285,0.0312865674496,0.0145803941414,-0.00423589069396,-0.999395132065
1546562444285661173,249,1546562444285504174,world,-0.00415714038536,0.0344328358769,0.0235484316945,0.0312568061054,0.0144490525126,-0.00427964096889,-0.999397873878
1546562444294895806,250,1546562444294739510,world,-0.00416043447331,0.0344253703952,0.0235369671136,0.0314017049968,0.0136639503762,-0.00423810025677,-0.999404549599
1546562444294941408,251,1546562444294793464,world,-0.00415352126583,0.0344331376255,0.0235334970057,0.0315492376685,0.014381038025,-0.00414743833244,-0.999390125275
1546562444305234940,252,1546562444305087317,world,-0.00414446601644,0.0344379283488,0.0235281325877,0.0314618982375,0.0148774040863,-0.0041461084038,-0.999385714531
1546562444305339617,253,1546562444305143800,world,-0.004148111213,0.034442152828,0.0235433727503,0.0314805805683,0.0143079478294,-0.00410593114793,-0.999393582344
1546562444315630878,254,1546562444315468502,world,-0.00414866069332,0.0344347991049,0.0235524959862,0.0314162373543,0.0142726823688,-0.00414725812152,-0.99939596653
1546562444315703553,255,1546562444315535033,world,-0.0041534579359,0.0344396345317,0.023544523865,0.0314199849963,0.0141805633903,-0.00417921133339,-0.999397039413
1546562444324892775,256,1546562444324745824,world,-0.00416012201458,0.0344450175762,0.0235486160964,0.0314487554133,0.0138995926827,-0.00413870345801,-0.999400138855
1546562444324964075,257,1546562444324787298,world,-0.00415859790519,0.0344440899789,0.023552455008,0.0313269384205,0.0138410441577,-0.00417442154139,-0.999404668808
1546562444335309738,258,1546562444335152930,world,-0.00415035057813,0.0344394296408,0.0235551390797,0.0312446132302,0.0141697926447,-0.0042152190581,-0.999402523041
1546562444335449713,259,1546562444335197284,world,-0.00415470963344,0.0344301126897,0.0235541444272,0.031297557056,0.0133643308654,-0.00412283651531,-0.999412298203
1546562444335479506,260,1546562444335217253,world,-0.00415863934904,0.0344413891435,0.0235552303493,0.0313214585185,0.0131374718621,-0.0041625071317,-0.99941444397
1546562444345669897,261,1546562444345457503,world,-0.00416107755154,0.0344441309571,0.0235484130681,0.0314242653549,0.0131202666089,-0.00415427563712,-0.999411463737
1546562444345687146,262,1546562444345512738,world,-0.00414593797177,0.0344327688217,0.0235404651612,0.0314769074321,0.0135127110407,-0.00409861234948,-0.999404788017
1546562444356080780,263,1546562444355866945,world,-0.00414594449103,0.0344282612205,0.0235304031521,0.0315738171339,0.01339919772,-0.00404309667647,-0.999403476715
1546562444356109325,264,1546562444355899811,world,-0.00415656436235,0.0344301648438,0.0235236715525,0.0316613465548,0.0128762191162,-0.00406531477347,-0.999407529831
1546562444365336725,265,1546562444365188525,world,-0.00414899783209,0.0344301275909,0.0235244892538,0.0317612066865,0.013512945734,-0.00399744929746,-0.999396204948
1546562444375653202,266,1546562444375464073,world,-0.0041550421156,0.0344280786812,0.0235384516418,0.0315501615405,0.0133432121947,-0.00398389156908,-0.999405145645
1546562444375759768,267,1546562444375536300,world,-0.00415776995942,0.034429140389,0.0235419664532,0.0314685851336,0.0134973702952,-0.00402875896543,-0.999405503273
1546562444379621942,268,1546562444375564014,world,-0.00415216013789,0.0344327166677,0.0235448814929,0.0314998589456,0.0141664333642,-0.00410915771499,-0.999395012856
1546562444385185769,269,1546562444385045506,world,-0.00415641022846,0.0344359092414,0.0235450714827,0.0315601192415,0.0137785198167,-0.00406945636496,-0.999398589134
1546562444395481894,270,1546562444395316637,world,-0.00415254384279,0.0344395264983,0.0235296618193,0.0316185243428,0.0135618615896,-0.00410468503833,-0.999399662018
1546562444395509863,271,1546562444395363360,world,-0.00415606703609,0.0344403907657,0.0235332809389,0.0315116047859,0.0136457728222,-0.00408111326396,-0.999401926994
1546562444405929162,272,1546562444405758049,world,-0.00416034227237,0.0344500876963,0.0235347505659,0.0315515249968,0.0140135260299,-0.00414146762341,-0.999395370483
1546562444405947051,273,1546562444405834149,world,-0.00415148818865,0.0344391055405,0.023521117866,0.0317185558379,0.0141536900774,-0.00408159010112,-0.999388337135
1546562444406120627,274,1546562444405956843,world,-0.00414562458172,0.0344394929707,0.023522073403,0.0316596738994,0.013971128501,-0.0040306081064,-0.999392986298
1546562444415495330,275,1546562444415338746,world,-0.00415274268016,0.0344377346337,0.023538030684,0.0314842909575,0.0132294110954,-0.00399528536946,-0.999408721924
1546562444415527876,276,1546562444415384029,world,-0.00415796972811,0.0344366729259,0.0235422011465,0.0314775519073,0.0132244313136,-0.00410936959088,-0.999408602715
1546562444425901444,277,1546562444425681209,world,-0.00415634736419,0.0344430170953,0.0235330220312,0.0316309966147,0.0137309944257,-0.00420483062044,-0.999396443367
1546562444425941414,278,1546562444425733884,world,-0.00416016206145,0.0344436727464,0.0235357657075,0.0315319932997,0.0139874527231,-0.0041758925654,-0.999396204948
1546562444435194575,279,1546562444435000741,world,-0.00414967304096,0.0344451852143,0.0235410705209,0.0315785892308,0.0139176547527,-0.00407155137509,-0.999396085739
1546562444445489676,280,1546562444445286466,world,-0.00414574658498,0.0344408601522,0.0235393643379,0.0315293893218,0.0142506407574,-0.00410820776597,-0.999392867088
1546562444445512877,281,1546562444445340868,world,-0.0041464921087,0.034442178905,0.0235260389745,0.031569134444,0.0141752986237,-0.00417422037572,-0.999392390251
1546562444445654132,282,1546562444445472363,world,-0.00413982151076,0.0344430357218,0.023512436077,0.0316846556962,0.0145183820277,-0.00416803034022,-0.999383807182
1546562444454950847,283,1546562444454768470,world,-0.00414359662682,0.034434761852,0.0235191676766,0.0315393134952,0.0144999027252,-0.00414805440232,-0.999388813972
1546562444465251452,284,1546562444465070099,world,-0.0041512674652,0.0344319418073,0.0235261358321,0.0315344594419,0.0138954650611,-0.00411007460207,-0.99939763546
1546562444465270141,285,1546562444465136150,world,-0.00414211209863,0.034424893558,0.0235257763416,0.0314839631319,0.0141072366387,-0.00409062299877,-0.999396324158
1546562444475640637,286,1546562444475424658,world,-0.0041519231163,0.0344302803278,0.0235354490578,0.0316180251539,0.0139140384272,-0.00403899792582,-0.999395012856
1546562444475658750,287,1546562444475457044,world,-0.00415460765362,0.0344312489033,0.0235453993082,0.0313517786562,0.0144185107201,-0.00413060141727,-0.99939596653
1546562444475731873,288,1546562444475505078,world,-0.00415228400379,0.0344270169735,0.0235441066325,0.0313498228788,0.0144740557298,-0.00411223480478,-0.999395251274
1546562444485079055,289,1546562444484921703,world,-0.00414988864213,0.0344369634986,0.0235425103456,0.0314543992281,0.0140722896904,-0.00406617997214,-0.999397873878
1546562444495430158,290,1546562444495198147,world,-0.00415203161538,0.0344439856708,0.0235318560153,0.0314537622035,0.0132567156106,-0.00401254463941,-0.99940931797
1546562444495485361,291,1546562444495253701,world,-0.00415335968137,0.0344493798912,0.0235382802784,0.0315093956888,0.0133167319,-0.00397534621879,-0.999406933784
1546562444505876658,292,1546562444505728331,world,-0.00415123486891,0.0344425141811,0.0235340725631,0.0314365439117,0.0134457293898,-0.0039906911552,-0.999407410622
1546562444505922004,293,1546562444505784782,world,-0.00415827427059,0.0344353094697,0.0235332231969,0.0316095389426,0.0130903376266,-0.0041200616397,-0.999406099319
1546562444505935317,294,1546562444505804527,world,-0.00416272133589,0.0344326682389,0.0235420279205,0.0316169783473,0.012901625596,-0.00408777035773,-0.999408483505
1546562444515286851,295,1546562444515130843,world,-0.00415679765865,0.0344376452267,0.0235308539122,0.0316931605339,0.013096800074,-0.00401506246999,-0.999403834343
1546562444525539773,296,1546562444525406135,world,-0.00414818665013,0.0344340279698,0.0235190335661,0.0317617543042,0.0132172480226,-0.00390773965046,-0.999400496483
1546562444525624962,297,1546562444525458873,world,-0.00414676265791,0.0344385281205,0.0235220491886,0.0317561887205,0.0132557563484,-0.00399823719636,-0.999399781227
1546562444535876668,298,1546562444535711572,world,-0.00414989516139,0.0344321131706,0.02351840958,0.0317565351725,0.0131676709279,-0.00397167215124,-0.99940097332
1546562444535914110,299,1546562444535768599,world,-0.00414312304929,0.0344296582043,0.0235284846276,0.0315744355321,0.0136900823563,-0.0040124412626,-0.999399662018
1546562444535924670,300,1546562444535789112,world,-0.00414744345471,0.0344337932765,0.0235230326653,0.0314777158201,0.0136918611825,-0.00408129021525,-0.999402403831
1546562444545348720,301,1546562444545077218,world,-0.00413301028311,0.0344365499914,0.0235159788281,0.0316029712558,0.0140949236229,-0.00398782733828,-0.999393224716
1546562444545419187,302,1546562444545138597,world,-0.00414340943098,0.0344372689724,0.0235205031931,0.031552568078,0.0134242363274,-0.00400808127597,-0.999403953552
1546562444555747537,303,1546562444555454115,world,-0.00413772603497,0.034438714385,0.0235227458179,0.0315746590495,0.0139465667307,-0.00403722794726,-0.99939596653
1546562444555817269,304,1546562444555530343,world,-0.00414125854149,0.0344364531338,0.0235285703093,0.0314721055329,0.0137159163132,-0.00407400494441,-0.999402284622
1546562444565974666,305,1546562444565791585,world,-0.00413245614618,0.0344339497387,0.02350807935,0.031568467617,0.0138602601364,-0.00406947545707,-0.999397277832
1546562444575284214,306,1546562444575118446,world,-0.00413495721295,0.034433722496,0.0235033575445,0.0316776111722,0.0143455788493,-0.00408601481467,-0.999386906624
1546562444575447582,307,1546562444575248276,world,-0.00414163246751,0.0344267301261,0.0235202591866,0.0315660275519,0.0142613817006,-0.00407224521041,-0.999391674995
1546562444575574405,308,1546562444575362266,world,-0.0041366792284,0.0344272628427,0.0235151406378,0.0316462479532,0.0145037649199,-0.00403136666864,-0.99938583374
1546562444585867201,309,1546562444585658167,world,-0.0041296556592,0.0344348475337,0.0235148519278,0.0314865261316,0.0144821517169,-0.00402227556333,-0.999391198158
1546562444585884258,310,1546562444585704537,world,-0.00412789313123,0.0344340130687,0.023501932621,0.031655959785,0.0146191008389,-0.0039407517761,-0.99938416481
1546562444595285138,311,1546562444594951362,world,-0.00413328176364,0.0344342514873,0.0235125813633,0.0317571349442,0.0140475500375,-0.00385481724516,-0.999389529228
1546562444605521996,312,1546562444605277344,world,-0.00413774279878,0.0344310775399,0.023514084518,0.0318038389087,0.0135010117665,-0.00385486148298,-0.999395608902
1546562444605556845,313,1546562444605325762,world,-0.00414320547134,0.0344334766269,0.0235090125352,0.0317912362516,0.0132861696184,-0.00400319881737,-0.999398231506
1546562444605595375,314,1546562444605345539,world,-0.00414270954207,0.0344349257648,0.0235122777522,0.0317724794149,0.0130827007815,-0.00397551944479,-0.999401688576
1546562444615749381,315,1546562444615585821,world,-0.00414459360763,0.0344393774867,0.0235034208745,0.0316798575222,0.01365814358,-0.00396080175415,-0.999396920204
1546562444615803464,316,1546562444615636095,world,-0.00414489675313,0.0344350337982,0.0235008150339,0.0317647531629,0.0138701507822,-0.00400115689263,-0.999391198158
1546562444625178999,317,1546562444625001166,world,-0.00414443667978,0.0344355888665,0.0235047098249,0.0316877104342,0.0134127000347,-0.00400704471394,-0.999399781227
1546562444625199160,318,1546562444625056081,world,-0.0041511124,0.0344410352409,0.0235152728856,0.0317423306406,0.0127376522869,-0.00391465658322,-0.999407291412
1546562444635613658,319,1546562444635462035,world,-0.00414703786373,0.034439381212,0.0235158987343,0.0317382924259,0.0129455663264,-0.00390065740794,-0.999404788017
1546562444646018460,320,1546562444645752527,world,-0.00414685206488,0.0344355143607,0.0235187225044,0.0317637994885,0.0129062486812,-0.0040059578605,-0.999404072762
1546562444646037053,321,1546562444645796241,world,-0.00414970004931,0.0344273746014,0.0235353298485,0.0317351073027,0.0128174992278,-0.00401038303971,-0.999406099319
1546562444646046173,322,1546562444645925143,world,-0.00414640503004,0.0344303660095,0.0235295947641,0.0317913554609,0.0129393041134,-0.0039629410021,-0.999402999878
1546562444655443565,323,1546562444655284902,world,-0.00413647200912,0.0344335772097,0.023506782949,0.0317000299692,0.0135850701481,-0.00395112810656,-0.999397397041
1546562444655467023,324,1546562444655348393,world,-0.00413172645494,0.0344277694821,0.0235087424517,0.0316923670471,0.0139121701941,-0.00399057473987,-0.999392986298
1546562444665809229,325,1546562444665631621,world,-0.0041413968429,0.034431938082,0.0235217399895,0.0318402424455,0.0134840514511,-0.00398306921124,-0.999394178391
1546562444675143802,326,1546562444674942449,world,-0.00414238357916,0.0344241373241,0.0235172417015,0.0318241901696,0.0133418701589,-0.0039904024452,-0.999396562576
1546562444675166780,327,1546562444674993619,world,-0.00414001569152,0.0344254821539,0.023519795388,0.0318907238543,0.0131207965314,-0.00387448770925,-0.999397754669
1546562444685481561,328,1546562444685307376,world,-0.0041367080994,0.0344341397285,0.023515464738,0.0318348184228,0.0135876694694,-0.00389462569728,-0.999393224716
1546562444685673635,329,1546562444685395605,world,-0.00413421774283,0.0344333276153,0.0234982129186,0.0319374278188,0.014221589081,-0.00395129295066,-0.999380946159
1546562444685695812,330,1546562444685421814,world,-0.00413561146706,0.0344379357994,0.023489004001,0.0319558009505,0.0139584084973,-0.00385856023058,-0.999384403229
1546562444695860922,331,1546562444695671184,world,-0.00413909740746,0.0344350785017,0.0234983861446,0.0319137759507,0.0133783007041,-0.00382143445313,-0.999393820763
1546562444695914940,332,1546562444695706066,world,-0.00413146847859,0.0344303362072,0.0234915651381,0.0319519452751,0.0137263396755,-0.00386789580807,-0.999387741089
1546562444705116163,333,1546562444704992125,world,-0.00412932643667,0.0344356074929,0.0234922990203,0.0318982675672,0.0139268664643,-0.00382945174351,-0.999386787415
1546562444715449185,334,1546562444715273080,world,-0.00412809709087,0.0344296842813,0.0234859026968,0.0319578275084,0.01367118489,-0.00374638382345,-0.999388694763
1546562444715478531,335,1546562444715326715,world,-0.00413372181356,0.0344308130443,0.0234914980829,0.0320823267102,0.0132399201393,-0.00383187341504,-0.999390244484
1546562444725680058,336,1546562444725557364,world,-0.00414225179702,0.0344265401363,0.0235017966479,0.0319955721498,0.0127534335479,-0.00389790255576,-0.999399065971
1546562444725849987,337,1546562444725610935,world,-0.00413394812495,0.0344089195132,0.02349001728,0.032036986202,0.0132224839181,-0.00389439077117,-0.999391674995
1546562444725885989,338,1546562444725634296,world,-0.00413311365992,0.0344119518995,0.0234806984663,0.0318761356175,0.013396827504,-0.00383792142384,-0.999394774437
1546562444734959685,339,1546562444734823422,world,-0.00413037464023,0.0344115197659,0.0234833639115,0.0317294709384,0.0136594064534,-0.00393564859405,-0.999395489693
1546562444745183518,340,1546562444745050775,world,-0.00412602163851,0.0344171449542,0.0234926175326,0.0317815802991,0.0137887541205,-0.00392559915781,-0.999392032623
1546562444745322085,341,1546562444745107994,world,-0.00412563281134,0.0344154499471,0.0234919581562,0.031791780144,0.012922950089,-0.00381430354901,-0.999403715134
1546562444755601344,342,1546562444755421175,world,-0.00412424979731,0.0344158932567,0.0234894026071,0.0318732969463,0.0127224987373,-0.00377944856882,-0.999403834343
1546562444755624417,343,1546562444755480474,world,-0.0041174585931,0.0344237200916,0.0234820768237,0.0318944752216,0.013133989647,-0.00378631404601,-0.999397873878
1546562444755667588,344,1546562444755503227,world,-0.00412225723267,0.0344210080802,0.0234934911132,0.0318707339466,0.0128079401329,-0.00380546669476,-0.999402761459
1546562444765837306,345,1546562444765674034,world,-0.00412318203598,0.0344237647951,0.023497659713,0.0317960642278,0.0127793028951,-0.00379371154122,-0.999405503273
1546562444765930078,346,1546562444765704243,world,-0.00413343496621,0.0344209633768,0.0234995801002,0.0318333804607,0.012553553097,-0.00390552659519,-0.999406814575
1546562444775395346,347,1546562444775156422,world,-0.00413447944447,0.0344288349152,0.0234928652644,0.0318693481386,0.0128681017086,-0.00393746979535,-0.999401450157
1546562444775410803,348,1546562444775252619,world,-0.00412344373763,0.0344212427735,0.0234810318798,0.0320976562798,0.0127724278718,-0.00376134039834,-0.999396085739
1546562444785722576,349,1546562444785577129,world,-0.00412777625024,0.0344185680151,0.0234790351242,0.0321077480912,0.0129636311904,-0.00373196252622,-0.999393463135
1546562444785770194,350,1546562444785615659,world,-0.00411821901798,0.0344154275954,0.0234723072499,0.0323010012507,0.0133513463661,-0.00371243339032,-0.999382138252
1546562444795144449,351,1546562444794911926,world,-0.00412682723254,0.0344174541533,0.0234766621143,0.0322504676878,0.0130429416895,-0.00365444435738,-0.999388098717
1546562444805416829,352,1546562444805193202,world,-0.00413325056434,0.034423019737,0.0234879422933,0.0321660190821,0.0127540463582,-0.00377563247457,-0.999394059181
1546562444805433246,353,1546562444805226835,world,-0.0041298144497,0.0344165563583,0.0234757047147,0.0321815796196,0.0129631478339,-0.00376633787528,-0.99939095974
1546562444805600070,354,1546562444805494881,world,-0.00413364358246,0.0344201289117,0.023467650637,0.0322010070086,0.0125193409622,-0.00376967270859,-0.99939596653
1546562444814938291,355,1546562444814781355,world,-0.00412579020485,0.0344244427979,0.0234655439854,0.0322130545974,0.0123992711306,-0.00380508066155,-0.999396920204
1546562444825227727,356,1546562444825030726,world,-0.00412677042186,0.0344167090952,0.0234671644866,0.0322976149619,0.0115921460092,-0.00380693376064,-0.999403834343
1546562444825253969,357,1546562444825071304,world,-0.00413510110229,0.0344166047871,0.0234722569585,0.0321662500501,0.0115088615566,-0.00374620174989,-0.99940931797
1546562444835581135,358,1546562444835451048,world,-0.00412667542696,0.0344149842858,0.0234807748348,0.0321663469076,0.0123394858092,-0.0037178019993,-0.999399542809
1546562444835632977,359,1546562444835499307,world,-0.00412909593433,0.0344187393785,0.0234786532819,0.0320819169283,0.0124741895124,-0.00370445591398,-0.999400615692
1546562444835746039,360,1546562444835634801,world,-0.00412423349917,0.0344152860343,0.0234638936818,0.032336473465,0.0125063965097,-0.00365084223449,-0.999392151833
1546562444844953886,361,1546562444844806486,world,-0.00412384001538,0.0344141088426,0.0234678164124,0.0322622917593,0.0125981559977,-0.00376365869306,-0.999392986298
1546562444855206168,362,1546562444855055088,world,-0.00413121189922,0.0344199985266,0.0234693400562,0.0323496051133,0.012450683862,-0.0037631499581,-0.999392032623
1546562444855236025,363,1546562444855113459,world,-0.00412680208683,0.0344159603119,0.0234720632434,0.0321973152459,0.0125365052372,-0.00368500361219,-0.999396204948
1546562444865635995,364,1546562444865477971,world,-0.0041247876361,0.0344093516469,0.0234772693366,0.0321495272219,0.0123168947175,-0.00362782040611,-0.999400615692
1546562444865676061,365,1546562444865529750,world,-0.00411858549342,0.0344133414328,0.0234590396285,0.0322953648865,0.0123582556844,-0.0035925754346,-0.999395608902
1546562444875204788,366,1546562444874915653,world,-0.00411542784423,0.0344160832465,0.0234568305314,0.0322246327996,0.0121570536867,-0.00354840559885,-0.999400496483
1546562444875221749,367,1546562444874962856,world,-0.0041140592657,0.034413639456,0.0234562065452,0.0323550477624,0.0121845826507,-0.00359879154712,-0.999395728111
1546562444875370492,368,1546562444875192371,world,-0.00410932069644,0.0344180986285,0.023455504328,0.0322949960828,0.012517683208,-0.00353744742461,-0.999393820763
1546562444885575540,369,1546562444885431181,world,-0.00411525834352,0.0344179198146,0.0234472919255,0.0323022119701,0.0120694627985,-0.00348650896922,-0.999399185181
1546562444885594645,370,1546562444885474735,world,-0.00412408681586,0.0344195961952,0.0234558731318,0.0322667844594,0.0114891957492,-0.00358565640636,-0.999406814575
