%time,field.header.seq,field.header.stamp,field.header.frame_id,field.pose.position.x,field.pose.position.y,field.pose.position.z,field.pose.orientation.x,field.pose.orientation.y,field.pose.orientation.z,field.pose.orientation.w
1546557915106160338,0,1546557915105557117,world,-0.0131830973551,0.0374049246311,0.617358207703,0.0278872810304,-0.0162770710886,-0.00348384655081,-0.999472439289
1546557915125772851,1,1546557915125203839,world,-0.0133959846571,0.0379502959549,0.617876827717,0.0210654418916,-0.0464611276984,-0.00656522391364,-0.998676359653
1546557915125812916,2,1546557915125359620,world,-0.0134880077094,0.0382080338895,0.618097901344,0.0182152781636,-0.0601496249437,-0.0078654140234,-0.997992157936
1546557915135139252,3,1546557915134671780,world,-0.0134767387062,0.0382088050246,0.618089139462,0.0182872023433,-0.0595645979047,-0.00782954320312,-0.998026192188
1546557915145764608,4,1546557915145274479,world,-0.0134717645124,0.0381907783449,0.618070185184,0.018507571891,-0.0589968264103,-0.00766465160996,-0.998057126999
1546557915165204059,5,1546557915164909457,world,-0.0134736159816,0.038158107549,0.618052482605,0.0189577713609,-0.058015063405,-0.00754786236212,-0.998107135296
1546557915165563719,6,1546557915165240284,world,-0.0134689118713,0.0381465703249,0.618036806583,0.0190931148827,-0.056971013546,-0.00752213317901,-0.998164951801
1546557915175899177,7,1546557915175553598,world,-0.0134607236832,0.0381322205067,0.61802905798,0.0192186422646,-0.0564014613628,-0.00743926689029,-0.998195469379
1546557915175972172,8,1546557915175677666,world,-0.0134582268074,0.0381031893194,0.618017733097,0.0193563476205,-0.0559574589133,-0.0072947437875,-0.9982188344
1546557915176028462,9,1546557915175706947,world,-0.0134659064934,0.0381002426147,0.618025720119,0.0193837787956,-0.0559131242335,-0.00723325368017,-0.998221337795
1546557915195558316,10,1546557915195353765,world,-0.0134549522772,0.0380828231573,0.618015348911,0.0195265617222,-0.0549732483923,-0.0071520768106,-0.998271286488
1546557915205148852,11,1546557915204669988,world,-0.0134471459314,0.0380814261734,0.618004441261,0.0195703823119,-0.0549456253648,-0.00713058188558,-0.998272061348
1546557915205210071,12,1546557915204788264,world,-0.0134546998888,0.0380835272372,0.618022799492,0.0195065047592,-0.0558895692229,-0.00705192377791,-0.998221516609
1546557915215362643,13,1546557915215139659,world,-0.0134477000684,0.038083974272,0.618013679981,0.0194599367678,-0.0549755841494,-0.00717477500439,-0.998272299767
1546557915215403412,14,1546557915215203181,world,-0.0134466569871,0.0380678661168,0.617996752262,0.0194667838514,-0.0544074364007,-0.00717825489119,-0.998303294182
1546557915225906684,15,1546557915225583697,world,-0.0134569108486,0.0380583256483,0.61800134182,0.0195818282664,-0.0548503696918,-0.00714952964336,-0.998277008533
1546557915235098807,16,1546557915234858031,world,-0.0134571781382,0.0380573607981,0.617990255356,0.0197212342173,-0.0541073456407,-0.00719639239833,-0.99831444025
1546557915245492092,17,1546557915245208114,world,-0.0134471626952,0.03806874156,0.61798375845,0.0198375005275,-0.0536477863789,-0.00714265322313,-0.998337328434
1546557915255818750,18,1546557915255578870,world,-0.0134411146864,0.0380773246288,0.617982804775,0.0198423005641,-0.0538832768798,-0.00707187363878,-0.998325049877
1546557915265372486,19,1546557915265056635,world,-0.0134351961315,0.0380699709058,0.617985725403,0.0198458004743,-0.0541223287582,-0.00697326799855,-0.998312711716
1546557915275729705,20,1546557915275514849,world,-0.0134245716035,0.0380696691573,0.617986559868,0.0199266076088,-0.0534908436239,-0.00705053284764,-0.998344659805
1546557915285352851,21,1546557915284974150,world,-0.0134318843484,0.0380635969341,0.617994010448,0.0198629628867,-0.0538241267204,-0.00703970110044,-0.998328030109
1546557915285385748,22,1546557915285040168,world,-0.0134481266141,0.0380694270134,0.61801046133,0.0197493545711,-0.0547689199448,-0.00697756465524,-0.998279333115
1546557915295800985,23,1546557915295439181,world,-0.0134535869583,0.0380780622363,0.618009626865,0.019774639979,-0.0553390197456,-0.00698204850778,-0.998247385025
1546557915295912989,24,1546557915295474766,world,-0.0134480400011,0.0380757190287,0.618002951145,0.0197806041688,-0.0545908771455,-0.00701374933124,-0.998288273811
1546557915315644833,25,1546557915315306038,world,-0.0134454397485,0.0380752906203,0.617987155914,0.0198342688382,-0.0540218316019,-0.00707897963002,-0.998317718506
1546557915325203881,26,1546557915324891870,world,-0.0134462779388,0.0380835309625,0.617983102798,0.0197436269373,-0.0546249412,-0.00702384253964,-0.998287022114
1546557915335591181,27,1546557915335292099,world,-0.0134460283443,0.0380788743496,0.617996454239,0.0196499712765,-0.0551807694137,-0.00700369849801,-0.998258471489
1546557915355414101,28,1546557915354913316,world,-0.013445597142,0.0380610786378,0.618005335331,0.0197107717395,-0.0556420646608,-0.00699874619022,-0.998231709003
1546557915365506127,29,1546557915365240966,world,-0.0134393339977,0.0380643829703,0.617994248867,0.0197164155543,-0.0546723268926,-0.00704983901232,-0.998284816742
1546557915385175186,30,1546557915384886568,world,-0.0134387230501,0.0380711778998,0.617994070053,0.0197444241494,-0.0538334921002,-0.00715817976743,-0.998329102993
1546557915395502772,31,1546557915395278572,world,-0.0134514290839,0.0380779020488,0.618001997471,0.019681269303,-0.0549333170056,-0.00711704324931,-0.998270690441
1546557915395531093,32,1546557915395326702,world,-0.0134547566995,0.0380779504776,0.617992937565,0.0197267383337,-0.0549205802381,-0.00712427450344,-0.998270511627
1546557915404767409,33,1546557915404556970,world,-0.0134600782767,0.0380860082805,0.617995977402,0.019747460261,-0.0551483258605,-0.00712920119986,-0.998257517815
1546557915415316315,34,1546557915414923758,world,-0.0134463179857,0.038089286536,0.61799031496,0.0199523251504,-0.0539643019438,-0.00715909525752,-0.99831789732
1546557915425450839,35,1546557915425199886,world,-0.0134472092614,0.0380874313414,0.617998659611,0.0200863722712,-0.0537599883974,-0.00720563856885,-0.998325884342
1546557915425497272,36,1546557915425285809,world,-0.0134430294856,0.0380804315209,0.617999792099,0.01983791776,-0.0536658987403,-0.00722020305693,-0.998335778713
1546557915434835256,37,1546557915434582256,world,-0.0134413680062,0.0380817912519,0.617988169193,0.0199127979577,-0.0536517761648,-0.00709672644734,-0.998336017132
1546557915445239869,38,1546557915444953907,world,-0.0134297609329,0.0380769781768,0.617978453636,0.0199434887618,-0.0531319789588,-0.00714661041275,-0.998362779617
1546557915445260094,39,1546557915444985492,world,-0.013429582119,0.0380682907999,0.617973566055,0.0199938453734,-0.0527060255408,-0.00722123868763,-0.998383820057
1546557915455579456,40,1546557915455298230,world,-0.0134213035926,0.0380805581808,0.617980778217,0.0199918802828,-0.0526441559196,-0.00723174121231,-0.998387098312
1546557915464847230,41,1546557915464640150,world,-0.0134227816015,0.0380925051868,0.617982685566,0.0200384240597,-0.0527161471546,-0.00724314618856,-0.998382210732
1546557915475414248,42,1546557915474933527,world,-0.0134234232828,0.0380825996399,0.617976248264,0.0200565773994,-0.0519845671952,-0.00726803811267,-0.998420059681
1546557915485575620,43,1546557915485322588,world,-0.0134235117584,0.0380739606917,0.617983937263,0.0200759805739,-0.0521938726306,-0.00722301658243,-0.998409092426
1546557915494886788,44,1546557915494575417,world,-0.0134309809655,0.0380707792938,0.617990493774,0.019877018407,-0.0532348193228,-0.00721924751997,-0.99835807085
1546557915494936453,45,1546557915494606874,world,-0.0134283825755,0.0380693860352,0.617999315262,0.0195888224989,-0.0540562309325,-0.00717308185995,-0.998320043087
1546557915515547208,46,1546557915515127066,world,-0.0134361600503,0.0380620956421,0.618008315563,0.0195780489594,-0.0542641058564,-0.00721784634516,-0.998308598995
1546557915515566441,48,1546557915515214365,world,-0.0134346904233,0.0380582325161,0.618007361889,0.0198180358857,-0.0537145771086,-0.00722585665062,-0.998333573341
1546557915525817288,49,1546557915525541439,world,-0.013436473906,0.038076158613,0.618013441563,0.0197791550308,-0.0534041449428,-0.00727529684082,-0.99835062027
1546557915525857066,50,1546557915525568672,world,-0.0134392781183,0.0380527041852,0.618007719517,0.0197838395834,-0.053837236017,-0.00725346151739,-0.998327374458
1546557915545491531,51,1546557915545151615,world,-0.0134381353855,0.0380235947669,0.617989420891,0.0198960285634,-0.0537678301334,-0.00723243923858,-0.998329043388
1546557915545536940,52,1546557915545204737,world,-0.013441442512,0.0380411185324,0.617996394634,0.0199053045362,-0.0543007776141,-0.00714549794793,-0.998300671577
1546557915555679304,53,1546557915555468161,world,-0.0134475110099,0.0380587428808,0.618003964424,0.0198231823742,-0.0542342551053,-0.00712349219248,-0.9983060956
1546557915575586099,54,1546557915575138627,world,-0.013445135206,0.0380798541009,0.618001878262,0.0197756923735,-0.0539042726159,-0.00722160702571,-0.998324155807
1546557915575627636,55,1546557915575320970,world,-0.0134276282042,0.0380632244051,0.617993414402,0.0196989197284,-0.0531530082226,-0.00731557328254,-0.998365283012
1546557915585008950,56,1546557915584688779,world,-0.0134060513228,0.0380483940244,0.61798375845,0.0198876019567,-0.052197072655,-0.00741525832564,-0.998411297798
1546557915595550111,57,1546557915595196819,world,-0.0134052969515,0.0380547642708,0.617983043194,0.0199770051986,-0.0520994924009,-0.00739980861545,-0.998414695263
1546557915595582080,58,1546557915595222676,world,-0.0134138129652,0.0380515679717,0.617983579636,0.0200503095984,-0.0524851568043,-0.00742181763053,-0.998392879963
1546557915605729756,59,1546557915605503733,world,-0.0134255439043,0.038058437407,0.617997586727,0.0199724249542,-0.0533263012767,-0.00739636830986,-0.998350083828
1546557915615619312,60,1546557915615156384,world,-0.0134365521371,0.0380621850491,0.618009924889,0.0198301412165,-0.0540212020278,-0.00734807783738,-0.998315870762
1546557915615785557,61,1546557915615459850,world,-0.0134332524613,0.0380519554019,0.618006646633,0.0197815727443,-0.0541498027742,-0.00725074438378,-0.998310565948
1546557915625158455,62,1546557915624809547,world,-0.0134191177785,0.0380589775741,0.617972970009,0.0199266839772,-0.0528164692223,-0.00729864928871,-0.998378813267
1546557915625255674,63,1546557915624874189,world,-0.0134147908539,0.0380628891289,0.617973685265,0.0198629293591,-0.0528912246227,-0.00726196356118,-0.998376309872
1546557915635566812,64,1546557915635236304,world,-0.0134180216119,0.0380712263286,0.617980480194,0.019903536886,-0.0524319298565,-0.00734779099002,-0.998399198055
1546557915655151163,65,1546557915654818480,world,-0.013434715569,0.0380778312683,0.617989420891,0.0199697446078,-0.052656441927,-0.00744789745659,-0.998385250568
1546557915655262687,66,1546557915654848913,world,-0.013427907601,0.038075517863,0.617989182472,0.019997632131,-0.0525021441281,-0.00750474072993,-0.998392403126
1546557915665410811,67,1546557915665159954,world,-0.0134261474013,0.0380807891488,0.617982566357,0.0199894830585,-0.052472025156,-0.00747799500823,-0.998394310474
1546557915675715292,68,1546557915675511637,world,-0.0134209478274,0.038095574826,0.61797606945,0.0199285205454,-0.0522185228765,-0.00752757163718,-0.99840849638
1546557915685039388,69,1546557915684887223,world,-0.0134242959321,0.0381075516343,0.617988049984,0.0197784639895,-0.0530830360949,-0.00745933130383,-0.998366415501
1546557915695497571,70,1546557915695264667,world,-0.0134318899363,0.0380860641599,0.618006646633,0.0197499971837,-0.0538089461625,-0.0073332907632,-0.998328983784
1546557915695654664,71,1546557915695316380,world,-0.01342199184,0.0380883030593,0.618001043797,0.0197587609291,-0.0532368309796,-0.00735733099282,-0.998359322548
1546557915704813698,72,1546557915704572186,world,-0.0134325455874,0.0380715057254,0.618003427982,0.0198842100799,-0.053759843111,-0.00739780208096,-0.998328506947
1546557915704968263,73,1546557915704647196,world,-0.0134318144992,0.0380546599627,0.618007540703,0.0199599526823,-0.0542457252741,-0.00736334593967,-0.998300969601
1546557915715416718,74,1546557915715177413,world,-0.0134319337085,0.0380361974239,0.618009626865,0.0198722127825,-0.0543692074716,-0.00734888296574,-0.998296141624
1546557915725695694,75,1546557915725482247,world,-0.0134214190766,0.038038212806,0.617988049984,0.0199220441282,-0.0532846711576,-0.00749056832865,-0.998352587223
1546557915735061487,76,1546557915734832039,world,-0.0134108019993,0.0380429923534,0.617973029613,0.0199012216181,-0.0527628399432,-0.00755754066631,-0.998380243778
1546557915755601680,77,1546557915755435274,world,-0.0134045742452,0.0380417555571,0.617972970009,0.0198775082827,-0.0525354258716,-0.00748707307503,-0.998393177986
1546557915775439928,78,1546557915775230257,world,-0.0133930109441,0.0380371622741,0.617965102196,0.0200219657272,-0.0513812452555,-0.00759684061632,-0.99844956398
1546557917295385226,79,1546557917295071487,world,-0.0132270632312,0.0375368632376,0.617486178875,0.026751158759,-0.0236329715699,-0.00450578285381,-0.999352574348
1546557918635320509,80,1546557918635073237,world,-0.0130036566406,0.0369082763791,0.616870820522,0.0353235676885,0.0119430972263,-0.00066850829171,-0.999304413795
1546557920125403689,81,1546557920125218179,world,-0.0129812993109,0.0369102284312,0.616866230965,0.0354679450393,0.011963176541,-0.00100898731034,-0.99929869175
1546557920135711883,82,1546557920135489891,world,-0.0125834913924,0.0379861183465,0.616266906261,0.0275840666145,0.0390441156924,-0.0036508757621,-0.998849987984
1546557921155393016,83,1546557921155080877,world,-0.012480427511,0.0382591448724,0.61610519886,0.0253983195871,0.0463187545538,-0.0043737674132,-0.998594164848
1546557921155445913,84,1546557921155171760,world,-0.0123318638653,0.038659799844,0.615885913372,0.0225433707237,0.0559629686177,-0.0051545300521,-0.998165071011
1546557923465555596,85,1546557923465381510,world,-0.0126505196095,0.0387513041496,0.616561770439,0.018788928166,0.0184785425663,-0.00737847201526,-0.999625444412
1546557923474876363,86,1546557923474626307,world,-0.0130176683888,0.0383601002395,0.617243111134,0.0194842778146,-0.0160689856857,-0.00785250589252,-0.99965018034
1546557923474909772,87,1546557923474698149,world,-0.0132716847584,0.038134790957,0.61766988039,0.0197918843478,-0.0387785024941,-0.00808049272746,-0.999019145966
1546557923485099722,88,1546557923484953989,world,-0.0134141920134,0.037991438061,0.617925643921,0.0199682489038,-0.0518664196134,-0.00825965311378,-0.9984202981
1546557923485184493,89,1546557923485008006,world,-0.0134887704626,0.0379158295691,0.618072330952,0.0201896224171,-0.0591686964035,-0.00829824432731,-0.998009324074
1546557923514864486,90,1546557923514698944,world,-0.0135268280283,0.0378721803427,0.618137121201,0.0202419441193,-0.0627015903592,-0.00830937176943,-0.997792422771
1546557923514928520,91,1546557923514755714,world,-0.0135362977162,0.0378699153662,0.618143498898,0.0202783662826,-0.0636783391237,-0.00835183728486,-0.997729420662
1546557923515184145,92,1546557923514985834,world,-0.0135722327977,0.0379014089704,0.618164241314,0.0206721313298,-0.0636567771435,-0.00753324851394,-0.997729361057
1546557923515201585,93,1546557923515088718,world,-0.013593970798,0.0378946587443,0.618196904659,0.0207827519625,-0.0638489052653,-0.00696385418996,-0.99771887064
1546557923525577749,94,1546557923525411823,world,-0.0136003298685,0.0379180163145,0.618191421032,0.0209587272257,-0.0630047544837,-0.00660240603611,-0.997771263123
1546557923825075374,95,1546557923824845639,world,-0.0134752783924,0.0380135662854,0.618014216423,0.0205858219415,-0.0537892468274,-0.00701393187046,-0.998315453529
1546557923844845588,96,1546557923844634989,world,-0.0133864758536,0.0380201786757,0.617963969707,0.0199659653008,-0.0508397743106,-0.00812584068626,-0.998474180698
1546557923855306971,97,1546557923855120404,world,-0.0133832991123,0.0380163230002,0.61796271801,0.0198660977185,-0.050637062639,-0.00805503316224,-0.998487114906
1546557923865604540,98,1546557923865390484,world,-0.0133890230209,0.0380225777626,0.617965936661,0.0198494307697,-0.0509921275079,-0.00793761946261,-0.998470306396
1546557923874880377,99,1546557923874711380,world,-0.0133954323828,0.0380203947425,0.617982685566,0.0199030917138,-0.0512445420027,-0.00790773611516,-0.998456478119
1546557923885284030,100,1546557923885005845,world,-0.0134059963748,0.0380149781704,0.617987751961,0.0198950711638,-0.05207856372,-0.00781596079469,-0.998414218426
1546557923885307743,101,1546557923885048694,world,-0.0134027106687,0.0380089618266,0.617992281914,0.0198828801513,-0.0522357299924,-0.00770528847352,-0.998407185078
1546557923885315743,102,1546557923885070519,world,-0.0134054422379,0.0380086451769,0.617995977402,0.0198763944209,-0.0522193610668,-0.00772693846375,-0.998407959938
1546557923895520445,103,1546557923895318518,world,-0.0133974421769,0.0380064360797,0.617984414101,0.0200098324567,-0.0521580092609,-0.0077389087528,-0.998408436775
1546557923895539870,104,1546557923895374392,world,-0.0133905662224,0.0380191765726,0.617979168892,0.0200523715466,-0.0518818050623,-0.00773928547278,-0.99842196703
1546557923904846077,105,1546557923904643542,world,-0.0133999213576,0.0380186513066,0.61797773838,0.020087711513,-0.0521124526858,-0.00774470390752,-0.998409152031
1546557923915239713,106,1546557923914999609,world,-0.0134019190446,0.0380348935723,0.617971718311,0.02007637918,-0.0518628060818,-0.00770007167011,-0.998422801495
1546557923925605668,107,1546557923925332251,world,-0.013399546966,0.038039624691,0.617974877357,0.0200269278139,-0.051741886884,-0.00767563935369,-0.998430252075
1546557923925630725,108,1546557923925397757,world,-0.0133930603042,0.0380280837417,0.617977976799,0.0200103502721,-0.0516038313508,-0.00767324538901,-0.998437643051
1546557923934843649,109,1546557923934668443,world,-0.0134009420872,0.0380152054131,0.617989420891,0.0200298205018,-0.0517510436475,-0.00766499806195,-0.998429775238
1546557923945204900,110,1546557923944976732,world,-0.0134066455066,0.0380159281194,0.617989897728,0.0200644675642,-0.0520491562784,-0.00757348770276,-0.99841427803
1546557923945227077,111,1546557923945029918,world,-0.013404533267,0.0380185209215,0.617987334728,0.0200252030045,-0.0521113239229,-0.00762398913503,-0.998411476612
1546557923955457251,112,1546557923955273213,world,-0.013412149623,0.0380264371634,0.617992758751,0.0201217699796,-0.0526006259024,-0.00754288490862,-0.998384416103
1546557923955475428,113,1546557923955314942,world,-0.013398678042,0.0380176566541,0.617982506752,0.0203045662493,-0.0514477156103,-0.00761422608048,-0.998440265656
1546557923964743618,114,1546557923964524538,world,-0.0133955124766,0.0380065441132,0.617976605892,0.0203671809286,-0.0513018034399,-0.00762899592519,-0.998446404934
1546557923964759266,115,1546557923964586268,world,-0.0134093686938,0.0379986874759,0.617990493774,0.0201610717922,-0.0526002496481,-0.00751170003787,-0.998383879662
1546557923975110117,116,1546557923974854428,world,-0.0134136145934,0.0380103066564,0.617987811565,0.0200239215046,-0.0524826422334,-0.00753255700693,-0.998392701149
1546557923985337251,117,1546557923985197567,world,-0.013426983729,0.0380198583007,0.617993235588,0.0199978761375,-0.0530106090009,-0.00750601757318,-0.998365521431
1546557923985407558,118,1546557923985248032,world,-0.0134224519134,0.0380123965442,0.617992699146,0.0200707931072,-0.052378449589,-0.00756347645074,-0.998396992683
1546557923994801832,119,1546557923994622882,world,-0.0134103186429,0.0380040444434,0.617986679077,0.02014718391,-0.0519378595054,-0.0076248482801,-0.998418033123
1546557924005099081,120,1546557924004905282,world,-0.0134158730507,0.0380202382803,0.617987275124,0.0200195945799,-0.0517972372472,-0.007600705605,-0.998428106308
1546557924005121770,121,1546557924004947076,world,-0.013429293409,0.0380351766944,0.617987692356,0.0199666582048,-0.0531170032918,-0.00753787951544,-0.998360216618
1546557924005134762,122,1546557924004970340,world,-0.0134263299406,0.0380456857383,0.617992460728,0.0199127774686,-0.0529105104506,-0.00750324688852,-0.998372554779
1546557924015559823,123,1546557924015403946,world,-0.0134285930544,0.0380415357649,0.617983102798,0.0199728962034,-0.0526966825128,-0.00749239511788,-0.998382687569
1546557924015634706,124,1546557924015450924,world,-0.0134421233088,0.0380419157445,0.61799955368,0.0197826270014,-0.0532622113824,-0.00756875379011,-0.998355984688
1546557924025043060,125,1546557924024900239,world,-0.0134366629645,0.0380414761603,0.617999613285,0.0196674242616,-0.0530025027692,-0.00759833818302,-0.998371779919
1546557924035386711,126,1546557924035206161,world,-0.0134348841384,0.0380385033786,0.618003070354,0.0197102949023,-0.0529029071331,-0.00761954952031,-0.998376071453
1546557924035446745,127,1546557924035250482,world,-0.0134320128709,0.0380354747176,0.618004858494,0.0197972469032,-0.0527538768947,-0.00766517547891,-0.998381912708
1546557924044630900,128,1546557924044505455,world,-0.0134312706068,0.038030333817,0.617997288704,0.0199425574392,-0.052400059998,-0.00766182597727,-0.998397648335
1546557924054993399,129,1546557924054770799,world,-0.0134203406051,0.0380169413984,0.617986142635,0.0201391968876,-0.0513355359435,-0.0076835337095,-0.998448908329
1546557924055048185,130,1546557924054823537,world,-0.0134230824187,0.0380091667175,0.617994844913,0.0203351192176,-0.0520030111074,-0.00766035309061,-0.998410522938
1546557924055183805,131,1546557924054959318,world,-0.0134297404438,0.0380094721913,0.617997586727,0.0202278960496,-0.052401971072,-0.00764016341418,-0.998392045498
1546557924065704230,132,1546557924065481662,world,-0.0134128360078,0.0379994697869,0.617984712124,0.0203299801797,-0.0512102097273,-0.00775619409978,-0.998450875282
1546557924065726343,133,1546557924065554593,world,-0.0134171070531,0.03797692433,0.617986381054,0.0203747730702,-0.0510591045022,-0.00767837418243,-0.998458266258
1546557924075058055,134,1546557924074849599,world,-0.0134100923315,0.0379797555506,0.617967367172,0.0205976311117,-0.0504543147981,-0.00777397165075,-0.998483657837
1546557924085334375,135,1546557924085167809,world,-0.0134108755738,0.0379783958197,0.617965340614,0.0205433275551,-0.050418779254,-0.00773416878656,-0.998486995697
1546557924085348743,136,1546557924085208995,world,-0.0134223261848,0.0379643812776,0.617983400822,0.0204558875412,-0.0513489358127,-0.00766425440088,-0.998441874981
1546557924094641446,137,1546557924094506785,world,-0.0134364962578,0.0379605777562,0.618001699448,0.0202630013227,-0.0524916164577,-0.00766371190548,-0.998386383057
1546557924104964776,138,1546557924104782305,world,-0.0134333968163,0.0379503443837,0.617996633053,0.0203269831836,-0.0527208894491,-0.0076284497045,-0.998373270035
1546557924104993257,139,1546557924104860484,world,-0.0134315565228,0.0379421934485,0.617996752262,0.0204580593854,-0.0522688254714,-0.0076479325071,-0.99839425087
1546557924115409870,140,1546557924115197638,world,-0.0134424129501,0.037949025631,0.61799633503,0.020208183676,-0.0527715682983,-0.00763737084344,-0.998372912407
1546557924115436079,141,1546557924115257128,world,-0.0134456008673,0.0379560701549,0.617998123169,0.0202416200191,-0.0524476841092,-0.00770586449653,-0.998388767242
1546557924135264822,142,1546557924134952427,world,-0.0134450988844,0.0378514528275,0.618059575558,0.0207742415369,-0.0469876676798,-0.00841256882995,-0.998644053936
1546557924135284823,143,1546557924134999053,world,-0.013436473906,0.0377959236503,0.618095815182,0.0210354346782,-0.0437513738871,-0.0087866326794,-0.998782396317
1546557924145652186,144,1546557924145423730,world,-0.0134357623756,0.0377517156303,0.618114471436,0.0213054604828,-0.0417348593473,-0.0090135037899,-0.998860895634
1546557924155050108,145,1546557924154818868,world,-0.013437374495,0.0377400442958,0.618121981621,0.0215205326676,-0.0398906208575,-0.00925132445991,-0.99892950058
1546557924165399871,146,1546557924165139446,world,-0.013444211334,0.0377505458891,0.618134200573,0.0213550012559,-0.0399042218924,-0.00926494877785,-0.998932361603
1546557924165434176,147,1546557924165198904,world,-0.0134493801743,0.037730846554,0.618136942387,0.0214670095593,-0.0399598516524,-0.00927932653576,-0.998927593231
1546557924175666271,148,1546557924175507642,world,-0.0134577620775,0.03773766011,0.618129968643,0.0214049499482,-0.0403699614108,-0.00920770969242,-0.998913049698
1546557924175762402,149,1546557924175562011,world,-0.0134463515133,0.037744063884,0.618124067783,0.0213598757982,-0.0401314608753,-0.00925855059177,-0.998923182487
1546557924185117411,150,1546557924184972126,world,-0.0134468302131,0.037749696523,0.618130743504,0.0213598273695,-0.0403337515891,-0.0091907940805,-0.998915672302
1546557924185222919,151,1546557924185024736,world,-0.0134360687807,0.0377670191228,0.618119418621,0.0213358514011,-0.0397590696812,-0.00920913182199,-0.998939037323
1546557924195624811,152,1546557924195350658,world,-0.0134389782324,0.0377456396818,0.618116736412,0.0213448721915,-0.0394887290895,-0.00925115030259,-0.998949170113
1546557924195657932,153,1546557924195436741,world,-0.0134490961209,0.0377591177821,0.618127405643,0.0210922434926,-0.0400681905448,-0.00929313059896,-0.998931050301
1546557924204916810,154,1546557924204696418,world,-0.0134538952261,0.0377474948764,0.618124008179,0.0210198704153,-0.0403858795762,-0.00924603361636,-0.998920321465
1546557924204971979,155,1546557924204752612,world,-0.0134440446272,0.0377427525818,0.618120729923,0.0210312064737,-0.0396552160382,-0.00922752358019,-0.99894952774
1546557924215257516,156,1546557924215086374,world,-0.0134308617562,0.0377298668027,0.618111371994,0.0212341025472,-0.0390408225358,-0.00928551144898,-0.998968839645
1546557924225664337,157,1546557924225473194,world,-0.0134294861928,0.0377443060279,0.618096888065,0.0213889535517,-0.0393510982394,-0.00928419176489,-0.998953342438
1546557924234936494,158,1546557924234748680,world,-0.0134419919923,0.0377456508577,0.618087947369,0.0211787000299,-0.0399202518165,-0.00913557596505,-0.998936653137
1546557924415674273,159,1546557924415436441,world,-0.013443809934,0.0378109961748,0.617965340614,0.0199752766639,-0.0489792302251,-0.00822572596371,-0.99856621027
1546557924415705986,160,1546557924415494971,world,-0.0134344520047,0.0378632508218,0.617866516113,0.0193229094148,-0.0542601831257,-0.00773183722049,-0.998309910297
1546557925265044505,161,1546557925264838674,world,-0.0130277676508,0.0384474098682,0.616421639919,0.0226978175342,-0.00242079328746,-0.00972752645612,-0.9996920228
1546557925265134844,162,1546557925264898100,world,-0.01277997531,0.0387274622917,0.615804791451,0.0213320497423,0.0324545055628,-0.00660537788644,-0.999223768711
1546557925275502239,163,1546557925275347898,world,-0.0130071118474,0.0386325120926,0.616000771523,0.0188281517476,0.0260138548911,-0.0031322480645,-0.999479353428
1546557925275660933,164,1546557925275393083,world,-0.0131945544854,0.037938054651,0.616105020046,0.0212835092098,0.00588783062994,0.000426179933129,-0.999756097794
1546557925284892129,165,1546557925284709467,world,-0.0132712451741,0.0377752557397,0.615988969803,0.0181810632348,0.0014201970771,0.00251167616807,-0.999830543995
1546557925285080359,166,1546557925284775325,world,-0.0133622130379,0.0373796895146,0.616131663322,0.0210852678865,-0.0108488164842,0.00382742169313,-0.999711453915
1546557925295416938,167,1546557925295156673,world,-0.0133419530466,0.0374533757567,0.61595261097,0.0179054457694,-0.0054879640229,0.00426159985363,-0.999815523624
1546557925295514477,168,1546557925295197826,world,-0.0134076913819,0.0371901839972,0.61613380909,0.0211200490594,-0.0152146564797,0.00478554097936,-0.999649763107
1546557925305687626,169,1546557925305471938,world,-0.013371642679,0.0373426117003,0.615987479687,0.0180065054446,-0.00928237941116,0.00472110463306,-0.999783635139
1546557925305810830,170,1546557925305547397,world,-0.0134280538186,0.0371436215937,0.616152405739,0.0206916164607,-0.0177547316998,0.00484736263752,-0.999616503716
1546557925315062443,171,1546557925314858692,world,-0.0134012205526,0.0373154655099,0.616046249866,0.0178671553731,-0.0130909113213,0.00472478196025,-0.999743461609
1546557925315188783,172,1546557925314913158,world,-0.0134368147701,0.0371407717466,0.616191625595,0.0206800997257,-0.0205009486526,0.0047287880443,-0.999564766884
1546557925325577203,173,1546557925325406157,world,-0.0134678436443,0.037026617676,0.616297662258,0.0226966887712,-0.0246915742755,0.00459524616599,-0.99942690134
1546557925325708696,174,1546557925325450639,world,-0.0134739363566,0.0369658768177,0.616343677044,0.0236051976681,-0.0273565389216,0.0044767591171,-0.999337017536
1546557925334975829,175,1546557925334765934,world,-0.0134828304872,0.0369353406131,0.616388678551,0.0242103859782,-0.0292805861682,0.00444307597354,-0.999268114567
1546557925345207540,176,1546557925345055951,world,-0.0134888766333,0.0369225554168,0.616424620152,0.0248333886266,-0.0305672846735,0.00437438813969,-0.999214589596
1546557925345387962,177,1546557925345184339,world,-0.0134986191988,0.0369204096496,0.616428911686,0.0250104423612,-0.0314511284232,0.00436714896932,-0.999182760715
1546557925345506206,178,1546557925345208884,world,-0.0135014830157,0.036914806813,0.616432607174,0.0252181161195,-0.0315874814987,0.00431472575292,-0.9991735816
1546557925355629465,179,1546557925355449171,world,-0.0135087165982,0.036921415478,0.616432666779,0.0251256898046,-0.0318945683539,0.0042668916285,-0.999166309834
1546557925355879522,180,1546557925355714076,world,-0.013505381532,0.0369150675833,0.616418123245,0.0249719861895,-0.031745750457,0.00417654775083,-0.99917525053
1546557925365188929,181,1546557925365013115,world,-0.0135035058483,0.0369196087122,0.616419494152,0.0252407547086,-0.0324819982052,0.00422794604674,-0.999144613743
1546557925365342278,182,1546557925365068669,world,-0.0134982336313,0.03691367805,0.616444528103,0.0254467595369,-0.0319997034967,0.00422631809488,-0.999154984951
1546557925375582853,183,1546557925375416671,world,-0.0134906126186,0.0369129925966,0.616426646709,0.0253763925284,-0.0317321382463,0.0041450788267,-0.999165654182
1546557925375727018,184,1546557925375465601,world,-0.0134870363399,0.0369145199656,0.616400837898,0.0253466553986,-0.0313191972673,0.00411920016631,-0.99917948246
1546557925384966791,185,1546557925384800801,world,-0.0134882759303,0.0368907824159,0.616369962692,0.0254854187369,-0.0325741395354,0.00430305069312,-0.999135136604
1546557925385179278,186,1546557925384852419,world,-0.0134912449867,0.0368718616664,0.616379797459,0.0257381070405,-0.0334086343646,0.00438603991643,-0.99910068512
1546557925395340554,187,1546557925395206470,world,-0.0135017447174,0.036859460175,0.616355121136,0.0259062387049,-0.0347190275788,0.00456883292645,-0.999050855637
1546557925395550993,188,1546557925395252583,world,-0.0135040655732,0.0368427038193,0.616353034973,0.0260547287762,-0.0346922576427,0.00449775159359,-0.999048233032
1546557925404769037,189,1546557925404551142,world,-0.0135009903461,0.0368290916085,0.616338253021,0.0259710811079,-0.0350555330515,0.0045806588605,-0.999037384987
1546557925404876593,190,1546557925404601063,world,-0.0135008813813,0.0368172004819,0.616323530674,0.0260166991502,-0.0358679145575,0.00469159148633,-0.999006867409
1546557925415169362,191,1546557925414877000,world,-0.0135031193495,0.0368072129786,0.616325259209,0.0261937137693,-0.0362817384303,0.00479895994067,-0.998986721039
1546557925415246836,192,1546557925414930281,world,-0.0135025512427,0.0367834828794,0.616335868835,0.0265901144594,-0.0367305725813,0.00473558623344,-0.998960137367
1546557925425455218,193,1546557925425236299,world,-0.0135013842955,0.0367644801736,0.616328299046,0.0269059538841,-0.0361412167549,0.00469628721476,-0.998973369598
1546557925425517044,194,1546557925425290125,world,-0.0135018825531,0.0367545336485,0.616324067116,0.0267741978168,-0.0358668118715,0.0046432139352,-0.998987078667
1546557925434682798,195,1546557925434496744,world,-0.0135100372136,0.0367671251297,0.616336584091,0.0268361810595,-0.036173325032,0.00458523631096,-0.998974680901
1546557925444870700,196,1546557925444744135,world,-0.0135064478964,0.0368182212114,0.616347491741,0.0261361896992,-0.0352155528963,0.00452064769343,-0.999027729034
1546557925445168278,197,1546557925444915341,world,-0.0135139524937,0.0368514545262,0.616350531578,0.0260565336794,-0.0343581885099,0.00438334513456,-0.99906027317
1546557925445438207,198,1546557925445311003,world,-0.0135179646313,0.0368884094059,0.616332292557,0.025398965925,-0.033999081701,0.00432642968372,-0.999089717865
1546557925454720989,199,1546557925454615770,world,-0.0135329142213,0.0368899926543,0.616353154182,0.0256069712341,-0.0337658636272,0.00422985898331,-0.999092698097
1546557925454973574,200,1546557925454812832,world,-0.0135421240702,0.0368993096054,0.616360366344,0.0256061460823,-0.0336314067245,0.00416483264416,-0.999097585678
1546557925465214469,201,1546557925465097473,world,-0.0135431978852,0.0369218587875,0.616360723972,0.0252995956689,-0.033673081547,0.00414060242474,-0.999104142189
1546557925465462893,202,1546557925465336009,world,-0.0135425068438,0.0369344912469,0.616362631321,0.0251084901392,-0.03346933797,0.00409440835938,-0.999115943909
1546557925474787213,203,1546557925474669673,world,-0.0135493194684,0.0369417406619,0.616348326206,0.0248627644032,-0.0329631119967,0.00400447100401,-0.999139308929
1546557925475081303,204,1546557925474912785,world,-0.0135484505445,0.0369510948658,0.616357624531,0.0247221607715,-0.0330479331315,0.00395337631926,-0.999140143394
1546557925485567870,205,1546557925485325078,world,-0.0135508328676,0.0369706749916,0.616370022297,0.0245830602944,-0.0326430238783,0.0038814553991,-0.999157190323
1546557925485725412,206,1546557925485372888,world,-0.0135784521699,0.0369939766824,0.616423308849,0.0245267208666,-0.0279674548656,0.00320914410986,-0.999302864075
1546557925494870973,207,1546557925494665398,world,-0.0135941561311,0.0370280966163,0.616454184055,0.0241608377546,-0.0240931473672,0.0026102673728,-0.99941432476
1546557925505233600,208,1546557925504930614,world,-0.0136020509526,0.0370391607285,0.616466403008,0.024015346542,-0.0214094519615,0.00224808137864,-0.99947977066
1546557925505409542,209,1546557925504981432,world,-0.0136154955253,0.0368945561349,0.616431951523,0.0255772788078,-0.0223160181195,0.00229760212824,-0.99942111969
1546557925505542187,210,1546557925505001848,world,-0.0136128515005,0.0368123427033,0.616403579712,0.0263324622065,-0.0230804700404,0.00232554972172,-0.99938416481
1546557925515564866,211,1546557925515291065,world,-0.0136128542945,0.0367413200438,0.616402387619,0.0270615182817,-0.0230708960444,0.00235504191369,-0.999364733696
1546557925515597219,212,1546557925515339643,world,-0.0134533736855,0.0369994975626,0.616191506386,0.0224662721157,-0.00889706239104,0.00171652925201,-0.999706566334
1546557925524767646,213,1546557925524529782,world,-0.0133463526145,0.0371583998203,0.616063058376,0.0192555971444,-0.000431119318819,0.00149095756933,-0.999813437462
1546557925524917955,214,1546557925524572983,world,-0.0128132784739,0.0378315970302,0.61585098505,0.011379621923,0.0371310226619,0.00345072429627,-0.999239623547
1546557925535033406,215,1546557925534911737,world,-0.013112465851,0.0373804271221,0.616055548191,0.0176929924637,0.0147571917623,0.00309898541309,-0.999729752541
1546557925535221572,216,1546557925535090848,world,-0.0133172376081,0.0370856150985,0.616188883781,0.0216223243624,-0.00055843940936,0.00292374216951,-0.99976170063
1546557925545576519,217,1546557925545446018,world,-0.0134452627972,0.0369027927518,0.616264522076,0.0241592619568,-0.0106574492529,0.00282603688538,-0.999647378922
1546557925545697931,218,1546557925545488772,world,-0.013541164808,0.0367890298367,0.616305470467,0.0256234984845,-0.0170985814184,0.00270545785315,-0.99952173233
1546557925554973609,219,1546557925554830724,world,-0.0135965077206,0.0367084667087,0.616340994835,0.0268712434918,-0.0210275556892,0.0026391451247,-0.999414205551
1546557925555077165,220,1546557925554878502,world,-0.0136317359284,0.0366671010852,0.616358935833,0.027369953692,-0.02386010997,0.00257976050489,-0.999337255955
1546557925565312011,221,1546557925565154310,world,-0.0136473877355,0.0366407483816,0.616360962391,0.0277052037418,-0.0257611833513,0.00260707386769,-0.999280810356
1546557925565442896,222,1546557925565206376,world,-0.0136582776904,0.0366306565702,0.61637622118,0.0277264006436,-0.0272073540837,0.00268264184706,-0.999241650105
1546557925575630285,223,1546557925575479976,world,-0.0136607410386,0.0366444885731,0.616391658783,0.0274791847914,-0.0279333088547,0.00282392161898,-0.999228060246
1546557925575736721,224,1546557925575530697,world,-0.0136601412669,0.0366457700729,0.616401255131,0.027590546757,-0.0279809236526,0.00271874992177,-0.99922388792
1546557925584915499,225,1546557925584791367,world,-0.0136521570385,0.036647785455,0.616386950016,0.0275468975306,-0.0278578642756,0.0027743128594,-0.999228417873
1546557925585029679,226,1546557925584833448,world,-0.0136607009917,0.0366478562355,0.616386830807,0.0275299418718,-0.0278628263623,0.00277762603946,-0.999228775501
1546557925595425043,227,1546557925595142122,world,-0.0136580131948,0.0366591028869,0.61638790369,0.0275374334306,-0.02737243101,0.00274115661159,-0.999242246151
1546557925595470581,228,1546557925595188811,world,-0.0136639457196,0.0366626530886,0.61638879776,0.0274585094303,-0.0273734033108,0.00276210275479,-0.999244272709
1546557925605762678,229,1546557925605500781,world,-0.0136588970199,0.036668010056,0.616386890411,0.0274256337434,-0.0269176252186,0.00273341708817,-0.999257743359
1546557925605950588,230,1546557925605559695,world,-0.0136549323797,0.0366658419371,0.616394221783,0.0275014415383,-0.0272461455315,0.00278948945925,-0.999246478081
1546557925615239130,231,1546557925614858189,world,-0.0136561375111,0.0366691350937,0.616401195526,0.027527904138,-0.0268150549382,0.00275995326228,-0.999257564545
1546557925615262363,232,1546557925614929040,world,-0.0136499796063,0.0366782620549,0.616388738155,0.0273584257811,-0.0265784859657,0.00285626808181,-0.999268174171
1546557925625484377,233,1546557925625219024,world,-0.0136486180127,0.0366888716817,0.616375505924,0.0271676518023,-0.0262375250459,0.0028712481726,-0.999282360077
1546557925625509690,234,1546557925625275090,world,-0.0136525118724,0.0366789884865,0.616389870644,0.0272786337882,-0.0265339370817,0.00289387302473,-0.999271512032
1546557925634820761,235,1546557925634521455,world,-0.0136431036517,0.0366786643863,0.616390883923,0.0272521600127,-0.0266715250909,0.0029023415409,-0.999268531799
1546557925635123780,236,1546557925634599762,world,-0.0136439083144,0.0366782285273,0.616393327713,0.0273330044001,-0.0270549878478,0.00290990504436,-0.999256014824
1546557925645072409,237,1546557925644869362,world,-0.0136463651434,0.036679700017,0.616377830505,0.0271818060428,-0.0265691503882,0.00292747048661,-0.999273061752
1546557925645188413,238,1546557925644922004,world,-0.0136500559747,0.0366605632007,0.616388201714,0.0272834766656,-0.0265487283468,0.00285255583003,-0.999271035194
1546557925655633859,239,1546557925655192820,world,-0.0136421425268,0.0366586409509,0.616388976574,0.027342390269,-0.0262019950897,0.00287155760452,-0.99927854538
1546557925655649827,240,1546557925655270966,world,-0.0136416461319,0.0366629883647,0.616382420063,0.0271317996085,-0.0260680224746,0.00287851109169,-0.999287843704
1546557925664627255,241,1546557925664486066,world,-0.0136399520561,0.0366636440158,0.616365373135,0.026653861627,-0.0266316849738,0.00290873413906,-0.999285697937
1546557925674964121,242,1546557925674759250,world,-0.0136336833239,0.03665664047,0.616374015808,0.0268411375582,-0.0262241996825,0.00292128464207,-0.999291419983
1546557925675167168,243,1546557925674811380,world,-0.0136290416121,0.036673091352,0.616380572319,0.0269679687917,-0.0256465990096,0.00291415234096,-0.999302983284
1546557925675232642,244,1546557925674873846,world,-0.0136524504051,0.0366821810603,0.616414129734,0.0266140270978,-0.0268233641982,0.00292906328104,-0.999281525612
1546557925685406207,245,1546557925685203256,world,-0.0136707499623,0.0367046222091,0.61641907692,0.0261058267206,-0.0277048181742,0.00289700762369,-0.999271035194
1546557925685543556,246,1546557925685320764,world,-0.0136642707512,0.0366890951991,0.61640059948,0.0265325363725,-0.0266180764884,0.00292697176337,-0.999289274216
1546557925694784448,247,1546557925694547224,world,-0.0136682791635,0.0367098227143,0.616409480572,0.0260538011789,-0.02686753124,0.00286671658978,-0.999295353889
1546557925705048352,248,1546557925704867706,world,-0.0136472554877,0.036696203053,0.61639213562,0.026222307235,-0.0264271255583,0.00291852396913,-0.999302506447
1546557925705160708,249,1546557925704932476,world,-0.0136561235413,0.0366922914982,0.616380572319,0.0264094173908,-0.0261874459684,0.00296991528012,-0.999303817749
1546557925705174085,250,1546557925704974366,world,-0.0136445760727,0.0366834513843,0.616373181343,0.0265065003186,-0.0257596727461,0.00294329645112,-0.999312400818
1546557925715501767,251,1546557925715285631,world,-0.0136470375583,0.0366730466485,0.616377770901,0.0268113743514,-0.0255594141781,0.0029386067763,-0.999309420586
1546557925715587721,252,1546557925715350081,world,-0.0136430999264,0.0366756431758,0.616354584694,0.0266500785947,-0.0248788036406,0.00290182442404,-0.999330997467
1546557925724817446,253,1546557925724587262,world,-0.0136439548805,0.0366666056216,0.616372287273,0.0270898863673,-0.0249858833849,0.00297239748761,-0.999316334724
1546557925724896648,254,1546557925724647168,world,-0.0136592024937,0.0366935245693,0.61637532711,0.0262522790581,-0.0258083380759,0.00285111321136,-0.999318122864
1546557925735336302,255,1546557925735130567,world,-0.0136678135023,0.0367067307234,0.616392195225,0.0258776731789,-0.0270849652588,0.00291112856939,-0.999293923378
1546557925735402129,256,1546557925735193417,world,-0.0136791039258,0.0367111042142,0.616421103477,0.0256028641015,-0.02760938555,0.00286266044714,-0.999286770821
1546557925744813971,257,1546557925744581291,world,-0.0136794513091,0.0367143414915,0.616426050663,0.0256689563394,-0.0278758648783,0.00284412479959,-0.999277710915
1546557925755464448,258,1546557925755055570,world,-0.0136788366362,0.0367143638432,0.616416156292,0.0255943089724,-0.0275891963392,0.00275612599216,-0.999287843704
1546557925755488417,259,1546557925755095859,world,-0.0136916367337,0.0367311239243,0.616409182549,0.0250435229391,-0.0284936353564,0.00282065500505,-0.999276280403
1546557925765614172,260,1546557925765384468,world,-0.0136814396828,0.0367271080613,0.616414785385,0.0251239854842,-0.0278554651886,0.00275151384994,-0.999292492867
1546557925765766465,261,1546557925765572795,world,-0.0136897582561,0.0367337949574,0.616416275501,0.0250905696303,-0.0284727104008,0.0028424942866,-0.999275565147
1546557925765788002,262,1546557925765639165,world,-0.0136813605204,0.0367238558829,0.616417825222,0.0251702778041,-0.0279170740396,0.002886924427,-0.999289155006
1546557925775262151,263,1546557925774953788,world,-0.0136770997196,0.0367456488311,0.616425395012,0.0248511992395,-0.0292412601411,0.00308256223798,-0.999258756638
1546557925775354218,264,1546557925775069024,world,-0.0136637911201,0.0367601215839,0.616425395012,0.024587649852,-0.0297408290207,0.00317664933391,-0.999250173569
1546557925785776207,265,1546557925785517702,world,-0.0136364046484,0.0367566682398,0.616417884827,0.025133151561,-0.029031470418,0.0033617708832,-0.999256849289
1546557925785828081,266,1546557925785583976,world,-0.0136225558817,0.0367562100291,0.616431057453,0.0247984752059,-0.0286986604333,0.00343780010007,-0.999274611473
1546557925795101166,267,1546557925794859654,world,-0.0136016365141,0.0367563441396,0.616427898407,0.0247336216271,-0.0281736664474,0.00354622071609,-0.999290823936
1546557925795223603,268,1546557925794919176,world,-0.0135785741732,0.0367592163384,0.616464555264,0.0250245295465,-0.0290945563465,0.00393283506855,-0.999255657196
1546557925805503603,269,1546557925805323309,world,-0.0135620320216,0.0367756597698,0.616454064846,0.02465765737,-0.0297309104353,0.00412869686261,-0.999245285988
1546557925805649080,270,1546557925805388047,world,-0.0135494368151,0.0367801040411,0.616474568844,0.0247704386711,-0.0314151532948,0.00439714035019,-0.999189853668
1546557925814937590,271,1546557925814753008,world,-0.0135468011722,0.036764152348,0.616493582726,0.0250713955611,-0.0319013223052,0.00454867398366,-0.999166250229
1546557925825188502,272,1546557925825018416,world,-0.0135418027639,0.0368682183325,0.616523265839,0.0238469280303,-0.0343091934919,0.00474270014092,-0.999115467072
1546557925825347803,273,1546557925825058705,world,-0.0138805676252,0.0373708829284,0.616854012012,0.0173466987908,-0.0542039610445,0.00380048830993,-0.998371958733
1546557925825375196,274,1546557925825106099,world,-0.0141152255237,0.0376941077411,0.617089867592,0.0132462633774,-0.0682755038142,0.00331229995936,-0.997573077679
1546557925835573210,275,1546557925835418516,world,-0.0142466565594,0.03790807724,0.617236793041,0.0106348153204,-0.0767152905464,0.00310232653283,-0.996991574764
1546557925835617019,276,1546557925835500215,world,-0.0143353985623,0.0380250252783,0.617326021194,0.00924217794091,-0.0818768590689,0.00302441651002,-0.996594965458
1546557925844940571,277,1546557925844764789,world,-0.0143823465332,0.038097858429,0.617370426655,0.00839473400265,-0.0852343589067,0.00289984745905,-0.996321320534
1546557925845060799,278,1546557925844823511,world,-0.0142934443429,0.0381757207215,0.617574393749,0.010494354181,-0.0828046798706,0.00155743060168,-0.996509373188
1546557925855315678,279,1546557925855164281,world,-0.013937140815,0.0382076911628,0.617838978767,0.0146908778697,-0.0712340399623,-0.00271368422545,-0.997347712517
1546557925865573598,280,1546557925865400856,world,-0.0137274768203,0.0381718538702,0.617936432362,0.0166887156665,-0.0636578127742,-0.00517464755103,-0.997818827629
1546557925865598559,281,1546557925865450969,world,-0.0135884284973,0.038169760257,0.618004500866,0.0181745886803,-0.0592009946704,-0.00666509289294,-0.998058438301
1546557925874926558,282,1546557925874722039,world,-0.0135070811957,0.0381579808891,0.618040263653,0.0190354026854,-0.0567908100784,-0.00760088022798,-0.998175740242
1546557925874976256,283,1546557925874796378,world,-0.0134511860088,0.0381301008165,0.618057727814,0.0195578783751,-0.054956741631,-0.00802058167756,-0.998265028
1546557925885247360,284,1546557925885014936,world,-0.0134096257389,0.0381089001894,0.618029952049,0.0199653878808,-0.0523066073656,-0.00824405625463,-0.998397469521
1546557925885271041,285,1546557925885078362,world,-0.0134095475078,0.0381138175726,0.618034303188,0.0200383476913,-0.0523349307477,-0.00840421114117,-0.998393177986
1546557925895616803,286,1546557925895386587,world,-0.0134168080986,0.0380971468985,0.618013620377,0.0202128197998,-0.0525197871029,-0.00829938426614,-0.998380839825
1546557925904884417,287,1546557925904672602,world,-0.0134296640754,0.0380898378789,0.618007838726,0.0201949384063,-0.0532406009734,-0.0081566600129,-0.998344242573
1546557925904905058,288,1546557925904719707,world,-0.0134130921215,0.038075927645,0.617982268333,0.0203098803759,-0.0518919341266,-0.00807903427631,-0.99841350317
1546557925915189346,289,1546557925914979451,world,-0.0132878692821,0.0381410308182,0.61751383543,0.0179664902389,-0.024284299463,-0.0108370417729,-0.999484956264
1546557925925482243,290,1546557925925288860,world,-0.0132968267426,0.0381319746375,0.617499768734,0.0176464002579,-0.0238407570869,-0.0108099253848,-0.999501466751
1546557925925521412,291,1546557925925344766,world,-0.0133484816179,0.0381181500852,0.617664515972,0.0186949912459,-0.0348835363984,-0.00956672336906,-0.999170720577
1546557925944980127,292,1546557925944766136,world,-0.0134136965498,0.038085617125,0.617851257324,0.0195799581707,-0.0468389838934,-0.00819736346602,-0.998676896095
1546557925945007744,293,1546557925944811097,world,-0.0134270209819,0.0380637533963,0.617909729481,0.0198795404285,-0.050138104707,-0.00781973823905,-0.998513877392
1546557925945112036,294,1546557925944834970,world,-0.0134412078187,0.0380673408508,0.617941558361,0.019862158224,-0.0519348457456,-0.00758416485041,-0.998424232006
1546557925955338690,295,1546557925955119259,world,-0.0134494323283,0.0380574986339,0.617974638939,0.0198487639427,-0.0535052753985,-0.00747027248144,-0.998342394829
1546557925955404260,296,1546557925955177597,world,-0.0134535012767,0.038063287735,0.617985188961,0.0197039395571,-0.0537019371986,-0.00750716496259,-0.998334348202
1546557925965638883,297,1546557925965445916,world,-0.0134579585865,0.0380649752915,0.617970108986,0.0197416394949,-0.0536338798702,-0.0074194772169,-0.998337984085
1546557925974932482,298,1546557925974766460,world,-0.0134563082829,0.0380531437695,0.61796194315,0.019761370495,-0.0537551790476,-0.00735650304705,-0.998331546783
1546557925974950306,299,1546557925974813438,world,-0.0134512195364,0.0380506403744,0.617947280407,0.0197922233492,-0.0529412440956,-0.00746918329969,-0.998373508453
1546557925985303397,300,1546557925985120031,world,-0.0134543832392,0.0380618087947,0.617942988873,0.0198587644845,-0.0533428788185,-0.00739467423409,-0.998351454735
1546557925995634343,301,1546557925995462849,world,-0.0134514924139,0.038058783859,0.617946922779,0.0198374092579,-0.0533621124923,-0.00740677723661,-0.998350739479
1546557925995682857,302,1546557925995520803,world,-0.013443752192,0.03805379197,0.617949306965,0.0198811460286,-0.053117159754,-0.00745373638347,-0.998362541199
1546557926004947110,303,1546557926004773312,world,-0.0134550863877,0.0380474254489,0.617960035801,0.0198244303465,-0.0529932454228,-0.00748715968803,-0.998369932175
1546557926015282856,304,1546557926015108066,world,-0.0134481722489,0.0380466505885,0.617933988571,0.0198905579746,-0.0521936155856,-0.00747094163671,-0.99841094017
1546557926015384076,305,1546557926015154276,world,-0.0134585723281,0.0380448326468,0.617945611477,0.0195703078061,-0.052892472595,-0.007528424263,-0.998380064964
1546557926025722638,306,1546557926025499719,world,-0.013462963514,0.0380472093821,0.617944598198,0.0195289552212,-0.0525385513902,-0.00756170740351,-0.998399317265
1546557926045369040,307,1546557926045044996,world,-0.0135533148423,0.0376409217715,0.617134928703,0.0190837252885,-0.0410211980343,-0.0017947491724,-0.998974382877
1546557926045436626,308,1546557926045071845,world,-0.0135541539639,0.0373971611261,0.616704761982,0.0201467145234,-0.0323826409876,0.00102088763379,-0.999271988869
1546557926055510635,309,1546557926055326597,world,-0.0135504612699,0.0372271798551,0.616452395916,0.0211119409651,-0.027060739696,0.00270449416712,-0.999407172203
1546557926055529228,310,1546557926055371654,world,-0.013427041471,0.0372105613351,0.616376161575,0.0185601282865,-0.0176607463509,0.00401159841567,-0.999663710594
1546557926064894221,311,1546557926064691558,world,-0.0134652722627,0.0371286273003,0.6162763834,0.0199733823538,-0.0183128900826,0.00451727211475,-0.999622583389
1546557926064914381,312,1546557926064751944,world,-0.0135037945583,0.037109117955,0.616249978542,0.0202027671039,-0.0196134839207,0.00467401044443,-0.999592542648
1546557926075416085,313,1546557926075116939,world,-0.0135069973767,0.0370777398348,0.616219639778,0.0209311824292,-0.0192470047623,0.0046336739324,-0.999584913254
1546557926075429398,314,1546557926075173357,world,-0.0135142309591,0.0370604805648,0.61622607708,0.0213364120573,-0.0203327517956,0.00469610467553,-0.999554514885
1546557926084704148,315,1546557926084485356,world,-0.0135201448575,0.0370613001287,0.61622685194,0.0216149613261,-0.0211364664137,0.00467844028026,-0.999531984329
1546557926084723956,316,1546557926084540142,world,-0.0135196605697,0.0370618700981,0.616232275963,0.0216539017856,-0.0212787091732,0.00452802935615,-0.999528765678
1546557926095132985,317,1546557926094794989,world,-0.0135238999501,0.0370735451579,0.616235494614,0.0214109923691,-0.0222324933857,0.00442514847964,-0.999513745308
1546557926095158042,318,1546557926094820718,world,-0.0135181313381,0.0370931103826,0.616246461868,0.0215523261577,-0.0226449873298,0.00425640121102,-0.999502182007
1546557926105316118,319,1546557926105071086,world,-0.0135183492675,0.0370935536921,0.616271615028,0.0215615853667,-0.0232290439308,0.00417365366593,-0.999488949776
1546557926105388024,320,1546557926105098991,world,-0.0135219106451,0.037107270211,0.61630487442,0.0216369275004,-0.0239677168429,0.00406038202345,-0.999470353127
1546557926115597878,321,1546557926115359758,world,-0.0135224051774,0.0371127538383,0.616312146187,0.0216953512281,-0.0239529144019,0.00404021330178,-0.999469518661
1546557926115621367,322,1546557926115413680,world,-0.0135240303352,0.0371112637222,0.61631923914,0.0217369347811,-0.0239311549813,0.00396278640255,-0.999469399452
1546557926124879252,323,1546557926124658573,world,-0.0135283349082,0.0371145457029,0.616325676441,0.0217538233846,-0.0242611858994,0.00390358502045,-0.999461293221
1546557926124900501,324,1546557926124737936,world,-0.0135170649737,0.0371297262609,0.616334080696,0.0216707456857,-0.0238647833467,0.00381114357151,-0.99947309494
1546557926135254424,325,1546557926134998671,world,-0.0135200014338,0.0371318794787,0.616349041462,0.0217761117965,-0.0238702408969,0.00373251293786,-0.999470949173
1546557926135297850,326,1546557926135100755,world,-0.0135191548616,0.0371185429394,0.616366684437,0.0219049826264,-0.0244531556964,0.00380154093727,-0.999453783035
1546557926145546329,327,1546557926145355538,world,-0.0135200638324,0.037122413516,0.616364479065,0.0219805017114,-0.0246099680662,0.00372304511257,-0.999448537827
1546557926145559833,328,1546557926145399092,world,-0.0135187096894,0.0371205024421,0.616379976273,0.0220814980567,-0.0247170906514,0.00369922141545,-0.999443769455
1546557926154834263,329,1546557926154687986,world,-0.0135163329542,0.0371251814067,0.616360962391,0.0217294525355,-0.0247559994459,0.0036696260795,-0.999450683594
1546557926165077782,330,1546557926164943954,world,-0.0135127678514,0.0371364243329,0.616350412369,0.0215133875608,-0.0241878088564,0.00360758299939,-0.999469399452
1546557926165386561,331,1546557926165012148,world,-0.0135040218011,0.0371351018548,0.616344928741,0.0215703677386,-0.0241557080299,0.00353725859895,-0.999469280243
1546557926165437858,332,1546557926165215099,world,-0.0135017009452,0.0371350757778,0.616328537464,0.0215333234519,-0.0237644277513,0.00354585493915,-0.999479413033
1546557926174627165,333,1546557926174478712,world,-0.013520212844,0.0371496751904,0.616353392601,0.021512331441,-0.024623375386,0.00359266879968,-0.999458909035
1546557926174787427,334,1546557926174527578,world,-0.0135133927688,0.0371612422168,0.616332352161,0.0212456639856,-0.0243402514607,0.0035055000335,-0.999471783638
1546557926184938303,335,1546557926184780665,world,-0.0135081186891,0.0371542647481,0.616332054138,0.0212854612619,-0.0246088188142,0.0035682558082,-0.999464154243
1546557926184978176,336,1546557926184830299,world,-0.0135135799646,0.0371507257223,0.616338551044,0.0214084014297,-0.0245452038944,0.00351526984014,-0.999463319778
1546557926195262401,337,1546557926195076858,world,-0.0135115375742,0.0371441245079,0.616336524487,0.0214920267463,-0.0245161857456,0.00350750796497,-0.999462246895
1546557926195280737,338,1546557926195118204,world,-0.0135065382347,0.0371412970126,0.616345107555,0.0214398279786,-0.0236334446818,0.00342658604495,-0.99948489666
1546557926205569218,339,1546557926205396316,world,-0.0135060520843,0.0371380411088,0.616334795952,0.0215290281922,-0.0237057711929,0.00344347511418,-0.999481201172
1546557926205668197,340,1546557926205452254,world,-0.0135088684037,0.0371518321335,0.616343379021,0.0212978515774,-0.0243392251432,0.00346507690847,-0.999470949173
1546557926214794494,341,1546557926214679162,world,-0.0135064823553,0.037163387984,0.616347670555,0.0210992377251,-0.0237959176302,0.00335131795146,-0.999488592148
1546557926214981924,342,1546557926214730044,world,-0.013501368463,0.0371605567634,0.61633515358,0.0209219064564,-0.0237355623394,0.00330946175382,-0.999493956566
1546557926225097183,343,1546557926224950650,world,-0.0135011328384,0.0371457897127,0.616350352764,0.0211696028709,-0.0244444590062,0.00337947835214,-0.999471306801
1546557926225153793,344,1546557926224996796,world,-0.013485702686,0.0371423847973,0.61635863781,0.0213053133339,-0.0244281776249,0.00348432920873,-0.999468445778
1546557926235398432,345,1546557926235236315,world,-0.0134782940149,0.0371319539845,0.616392195225,0.0215127617121,-0.0252313259989,0.00365513400175,-0.999443531036
1546557926235499204,346,1546557926235321053,world,-0.0134549383074,0.0371814034879,0.616546392441,0.0210859756917,-0.0317192263901,0.00447272974998,-0.999264359474
1546557926244660350,347,1546557926244529689,world,-0.0134490123019,0.0370812676847,0.616568624973,0.0223326012492,-0.0346331857145,0.00493215955794,-0.999138474464
1546557926244740192,348,1546557926244590875,world,-0.0133727891371,0.0369929596782,0.616699159145,0.0257056858391,-0.0329526625574,0.00409096945077,-0.999117970467
1546557926785196539,349,1546557926785025813,world,-0.0131613323465,0.0369074195623,0.616850018501,0.0319690220058,-0.0104943672195,0.00133806141093,-0.999432861805
1546557926795518524,350,1546557926795291157,world,-0.0130229573697,0.0369298532605,0.616864800453,0.0340934284031,0.00834686681628,-0.000159755596542,-0.999383866787
1546557926795545341,351,1546557926795383384,world,-0.0124313477427,0.0368016846478,0.616521298885,0.0340113639832,0.0323478206992,-0.00826238561422,-0.998863637447
1546557926814996984,352,1546557926814841139,world,-0.0122323604301,0.0367646962404,0.616432011127,0.0342930592597,0.0415108241141,-0.0105781257153,-0.998493432999
1546557926815102907,353,1546557926814898804,world,-0.0119489450008,0.0367019586265,0.616226196289,0.0338009148836,0.0511286780238,-0.0145064862445,-0.998014450073
1546557926825369243,354,1546557926825188629,world,-0.0122071336955,0.0367660671473,0.616403222084,0.034018650651,0.0404349900782,-0.0105811441317,-0.998546898365
1546557926835622427,355,1546557926835461973,world,-0.012675431557,0.0368789099157,0.616743326187,0.0347960889339,0.0223018098623,-0.00371619686484,-0.999138653278
1546557926844875640,356,1546557926844739507,world,-0.0128566836938,0.0369090698659,0.616878032684,0.0349364504218,0.0146713573486,-0.000993624329567,-0.999281406403
1546557926855204250,357,1546557926855032404,world,-0.0129138464108,0.0369134955108,0.616914510727,0.0349080748856,0.0114374505356,5.08536140842e-05,-0.999325096607
1546557926865433912,358,1546557926865290035,world,-0.0129153141752,0.0369142778218,0.616913318634,0.0348150283098,0.0100456345826,0.000212629747693,-0.999343335629
1546557926875800700,359,1546557926875559891,world,-0.0129093695432,0.0369161851704,0.616902053356,0.0346003063023,0.00916709471494,0.000255152961472,-0.999359190464
1546557926885026072,360,1546557926884868338,world,-0.0129154631868,0.0369182117283,0.616879701614,0.0345824956894,0.00910503789783,0.000329594011419,-0.999360322952
1546557926905534583,361,1546557926905366417,world,-0.0129277594388,0.0369139239192,0.61686193943,0.0346909686923,0.00932463165373,3.53952418664e-05,-0.999354600906
1546557927045310157,362,1546557927045131047,world,-0.0133638633415,0.0368884317577,0.616777837276,0.0302490331233,-0.0072851665318,0.00231749913655,-0.999513149261
1546557927055576173,363,1546557927055406055,world,-0.0136405806988,0.0368906036019,0.616711437702,0.0271246992052,-0.0164152607322,0.00394314527512,-0.999489426613
1546557927055736818,364,1546557927055456873,world,-0.0138196088374,0.0368737094104,0.616673409939,0.0252765342593,-0.0221681576222,0.00499810185283,-0.999422252178
1546557927085331944,365,1546557927085187171,world,-0.0140487486497,0.0368559360504,0.616654574871,0.023614808917,-0.027959195897,0.00623618345708,-0.999310672283
