%time,field.header.seq,field.header.stamp,field.header.frame_id,field.pose.position.x,field.pose.position.y,field.pose.position.z,field.pose.orientation.x,field.pose.orientation.y,field.pose.orientation.z,field.pose.orientation.w
1546558494365872868,0,1546558494365575949,world,-0.00838019046932,0.0358628891408,0.616466879845,0.0492406263947,0.0590065717697,-0.0212560538203,-0.996815860271
1546558494366005358,1,1546558494365724377,world,-0.0083040446043,0.0358430929482,0.616529464722,0.050939284265,0.0568815432489,-0.0215150602162,-0.996848464012
1546558494375609047,2,1546558494375131762,world,-0.00829648599029,0.0358417034149,0.616798520088,0.0538338460028,0.0583579801023,-0.0220232214779,-0.996599912643
1546558494375689661,3,1546558494375199447,world,-0.00849283579737,0.0358538776636,0.616365611553,0.0499488674104,0.062247812748,-0.0204343423247,-0.996600687504
1546558494385594300,4,1546558494385065491,world,-0.0087062921375,0.0359289832413,0.61612534523,0.0480561479926,0.0678244531155,-0.0190216135234,-0.996357679367
1546558494385677059,5,1546558494385156282,world,-0.00878392998129,0.0360088422894,0.615691721439,0.0344221591949,0.0644772946835,-0.0198457520455,-0.997127830982
1546558494395978209,6,1546558494395595619,world,-0.00880731828511,0.0359795987606,0.615671396255,0.0372874736786,0.066077157855,-0.0189543962479,-0.996937394142
1546558494396014276,7,1546558494395690475,world,-0.00870117917657,0.0360144898295,0.615726172924,0.0306979455054,0.0613402277231,-0.0209753811359,-0.997424185276
1546558494406276735,8,1546558494406002378,world,-0.00874348636717,0.0359595306218,0.615688621998,0.0349821560085,0.063864223659,-0.0196963623166,-0.99715077877
1546558494406419786,9,1546558494406082032,world,-0.00876320060343,0.0359506420791,0.615716159344,0.0386883616447,0.0652901977301,-0.0189864523709,-0.996935367584
1546558494415810018,10,1546558494415433124,world,-0.00880406796932,0.0359953008592,0.615463256836,0.0290495026857,0.0625979676843,-0.0200429931283,-0.997414588928
1546558494415875079,11,1546558494415538381,world,-0.00855025742203,0.0359276086092,0.615930080414,0.0380209423602,0.0588265359402,-0.0210021212697,-0.99732285738
1546558494425103282,12,1546558494424798522,world,-0.00840213987976,0.03588668257,0.616181015968,0.0427797846496,0.0566588118672,-0.0214216448367,-0.997246682644
1546558494425194233,13,1546558494424860223,world,-0.00831100903451,0.035858374089,0.616348028183,0.0460645630956,0.0550803802907,-0.0215590074658,-0.997185766697
1546558494435627809,14,1546558494435194624,world,-0.00831432826817,0.0359395779669,0.616072773933,0.0353312417865,0.050878982991,-0.0225833188742,-0.997824132442
1546558494435679173,15,1546558494435261701,world,-0.00858097616583,0.0359808020294,0.615996420383,0.0396025553346,0.0606698840857,-0.020524257794,-0.997160732746
1546558494445871291,16,1546558494445617863,world,-0.00841826014221,0.0359018445015,0.61625379324,0.0446786470711,0.0577400363982,-0.0213306192309,-0.997103214264
1546558494445985796,17,1546558494445719759,world,-0.00837068445981,0.0358618795872,0.616616606712,0.0497140809894,0.0589828379452,-0.0219288468361,-0.99677914381
1546558494455436896,18,1546558494455066147,world,-0.00842336844653,0.0359450131655,0.616346418858,0.0384562797844,0.0566415600479,-0.0228507257998,-0.997391939163
1546558494455463234,19,1546558494455094790,world,-0.00833596475422,0.0358927212656,0.616474986076,0.0438178516924,0.0555428490043,-0.0226087830961,-0.99723815918
1546558494465537935,20,1546558494465366850,world,-0.00851957406849,0.0358891040087,0.616189360619,0.0439602211118,0.0601991228759,-0.0207588449121,-0.997001826763
1546558494465735998,21,1546558494465425222,world,-0.00838453881443,0.0358601771295,0.616368412971,0.0469887517393,0.057276263833,-0.0212960168719,-0.997024595737
1546558494475967895,22,1546558494475690178,world,-0.00854542199522,0.0358838811517,0.616114854813,0.045834325254,0.0615796707571,-0.0197818242013,-0.996852993965
1546558494476067039,23,1546558494475800138,world,-0.00840009283274,0.0358633324504,0.616311490536,0.0479851365089,0.0583752803504,-0.0207405053079,-0.99692517519
1546558494485290505,24,1546558494485123741,world,-0.00832197442651,0.0358523502946,0.616394639015,0.0488647893071,0.05625044927,-0.0212686937302,-0.996993422508
1546558494485497370,25,1546558494485177729,world,-0.00830501597375,0.0358352921903,0.616694033146,0.0522017590702,0.0580695904791,-0.0219176430255,-0.996705830097
1546558494495635115,26,1546558494495437404,world,-0.0082468111068,0.0358146950603,0.616696357727,0.0524375215173,0.0563268400729,-0.0220910664648,-0.996789693832
1546558494495858204,27,1546558494495492352,world,-0.00822074152529,0.035817079246,0.616661787033,0.0520315505564,0.0552206709981,-0.0221460852772,-0.996871590614
1546558494504847285,28,1546558494504716427,world,-0.00820696167648,0.0358275845647,0.616633117199,0.0516360513866,0.0546827539802,-0.0221809055656,-0.996921122074
1546558494505061926,29,1546558494504798225,world,-0.00844631157815,0.0358636677265,0.616265296936,0.0481414534152,0.0599182620645,-0.0204960815609,-0.996831119061
1546558494515285950,30,1546558494515134418,world,-0.00861918181181,0.0359796620905,0.615780293941,0.0345719046891,0.0594686977565,-0.0206690449268,-0.997417211533
1546558494515425001,31,1546558494515179189,world,-0.00858816038817,0.0360289141536,0.615766346455,0.028094548732,0.0567848682404,-0.0221617408097,-0.997745037079
1546558494525633824,32,1546558494525463538,world,-0.00849050562829,0.0359563231468,0.616283118725,0.0387569405138,0.0586771741509,-0.0225016567856,-0.997270524502
1546558494525691876,33,1546558494525493141,world,-0.00837375689298,0.0359032563865,0.616400718689,0.04341173172,0.056646656245,-0.0224175881594,-0.997198164463
1546558494535909532,34,1546558494535756336,world,-0.0085430778563,0.0359075069427,0.616135656834,0.0434554964304,0.0610101409256,-0.0204353798181,-0.996981322765
1546558494536061704,35,1546558494535801555,world,-0.00847566593438,0.0358859598637,0.616455554962,0.047746848315,0.061430092901,-0.0211109127849,-0.996745169163
1546558494545174730,36,1546558494545056353,world,-0.0086310012266,0.0359876081347,0.615918338299,0.0346296057105,0.0603438057005,-0.0211283415556,-0.997352957726
1546558494545247375,37,1546558494545100740,world,-0.00859340839088,0.036024697125,0.615886569023,0.028766291216,0.0577238351107,-0.0223511196673,-0.997667789459
1546558494555514411,38,1546558494555366976,world,-0.00877406913787,0.0360227301717,0.615841090679,0.0349681153893,0.0651043131948,-0.0204228740185,-0.997056424618
1546558494555656950,39,1546558494555414979,world,-0.00862759631127,0.0360336527228,0.615706384182,0.0279053803533,0.0572872720659,-0.0217779520899,-0.997729957104
1546558494565927794,40,1546558494565715201,world,-0.00870345812291,0.0359687209129,0.615698575974,0.0339983291924,0.0614760704339,-0.0200545620173,-0.997327804565
1546558494565990135,41,1546558494565748356,world,-0.00856718048453,0.0359781272709,0.615641713142,0.0276019908488,0.0548112466931,-0.0219315271825,-0.997874140739
1546558494575225666,42,1546558494575068854,world,-0.00847208499908,0.0359097756445,0.616191148758,0.0385147407651,0.0571894273162,-0.0222477391362,-0.997372090816
1546558494575334507,43,1546558494575121850,world,-0.00842521805316,0.0359790548682,0.615980327129,0.0310175772756,0.0524670854211,-0.0231699198484,-0.997871816158
1546558494585530401,44,1546558494585389174,world,-0.00832643173635,0.0359196327627,0.616229534149,0.039153996855,0.052885837853,-0.0228579565883,-0.997570872307
1546558494585698286,45,1546558494585452987,world,-0.0083311740309,0.0359789542854,0.615960001945,0.030696215108,0.0497019439936,-0.0234502162784,-0.998016893864
1546558494595817630,46,1546558494595683028,world,-0.00850737188011,0.0359330140054,0.615862190723,0.0361617878079,0.0568346492946,-0.021235967055,-0.997502446175
1546558494595984171,47,1546558494595725815,world,-0.00864687375724,0.0360107384622,0.615568041801,0.0277321599424,0.0573088042438,-0.0212565511465,-0.997744858265
1546558494605072235,48,1546558494604942753,world,-0.00854526460171,0.0360302738845,0.615564644337,0.0237451344728,0.0527237653732,-0.022470427677,-0.998073935509
1546558494605221143,49,1546558494604965219,world,-0.00867554638535,0.036079749465,0.615374922752,0.019890550524,0.0547149516642,-0.0219181999564,-0.998063325882
1546558494615447535,50,1546558494615212061,world,-0.0085539733991,0.0360691435635,0.615444660187,0.0190869029611,0.050964679569,-0.0228666141629,-0.998256206512
1546558494615498035,51,1546558494615238783,world,-0.00841174367815,0.0359636805952,0.615903377533,0.0319949574769,0.0525682382286,-0.0224612653255,-0.997851908207
1546558494625604450,52,1546558494625468664,world,-0.00831426121294,0.0359052568674,0.616206526756,0.0404540970922,0.0530379712582,-0.0222740005702,-0.997524082661
1546558494625685512,53,1546558494625516187,world,-0.00859777629375,0.0359344631433,0.616045832634,0.0430123955011,0.0624318756163,-0.0200295429677,-0.996920764446
1546558494635906688,54,1546558494635768534,world,-0.00869061984122,0.0359212234616,0.615908920765,0.0437854044139,0.0650235190988,-0.0190374813974,-0.996740877628
1546558494635967301,55,1546558494635817241,world,-0.00849583558738,0.0358701050282,0.616209447384,0.0475063659251,0.0608322322369,-0.0202288739383,-0.996811687946
1546558494645247572,56,1546558494645044644,world,-0.00864628888667,0.0359667092562,0.615780830383,0.0350687243044,0.0603400170803,-0.0205383859575,-0.997350275517
1546558494645321306,57,1546558494645072103,world,-0.00871081650257,0.0359277501702,0.615783035755,0.0390722379088,0.0634600669146,-0.0194398891181,-0.997029781342
1546558494655423497,58,1546558494655296159,world,-0.00852449424565,0.0358778946102,0.616112411022,0.0442154593766,0.0599622018635,-0.0204172320664,-0.997011840343
1546558494655526097,59,1546558494655383334,world,-0.00843513477594,0.0358468219638,0.61652547121,0.0497346967459,0.0602415725589,-0.0214192997664,-0.996713936329
1546558494665847120,60,1546558494665632288,world,-0.00840198248625,0.0359272956848,0.616181492805,0.0377318449318,0.05444425717,-0.0226180870086,-0.997547268867
1546558494665877971,61,1546558494665676259,world,-0.00836812704802,0.0358938239515,0.61650967598,0.0443226732314,0.0571570657194,-0.0226107817143,-0.997124612331
1546558494675263658,62,1546558494674960051,world,-0.00834896042943,0.0359556153417,0.616154789925,0.0340781509876,0.0519849583507,-0.0234715919942,-0.997790277004
1546558494675477435,63,1546558494675051290,world,-0.00863599125296,0.0360767170787,0.615764141083,0.026436701417,0.0576871186495,-0.0222579836845,-0.997736394405
1546558494685609772,64,1546558494685323350,world,-0.00846218317747,0.0359780490398,0.616099715233,0.0363265946507,0.0559389255941,-0.0221460238099,-0.997527301311
1546558494685759895,65,1546558494685375162,world,-0.00869399122894,0.0359878651798,0.615975797176,0.0402061752975,0.064492508769,-0.0200160108507,-0.996907055378
1546558494696004593,66,1546558494695692825,world,-0.00854389369488,0.0359139405191,0.616430342197,0.0472083650529,0.0633068978786,-0.0211900547147,-0.99665170908
1546558494696232643,67,1546558494695759582,world,-0.00864422786981,0.0359232611954,0.616165578365,0.0461597591639,0.065372005105,-0.0196525976062,-0.996599018574
1546558494705169207,68,1546558494705014987,world,-0.00873626675457,0.036002472043,0.615727424622,0.0337393246591,0.0631075575948,-0.0202314015478,-0.997231125832
1546558494705335236,69,1546558494705058767,world,-0.00857562944293,0.0359282642603,0.616259038448,0.0427700392902,0.0625123903155,-0.0212032645941,-0.996901869774
1546558494715482903,70,1546558494715285639,world,-0.00845533236861,0.035883475095,0.616625010967,0.0484258048236,0.0613998696208,-0.0219480395317,-0.996696174145
1546558494715526778,71,1546558494715322602,world,-0.00858950894326,0.0358845256269,0.616289258003,0.0468029007316,0.0641141012311,-0.0202819611877,-0.996638178825
1546558494725863195,72,1546558494725600423,world,-0.00867295917124,0.0358916409314,0.616074204445,0.0459994599223,0.0657720565796,-0.0193203613162,-0.996586680412
1546558494726064971,73,1546558494725699214,world,-0.00872818008065,0.0359097868204,0.61591732502,0.0449738353491,0.066596634686,-0.0186120513827,-0.99659216404
1546558494735066212,74,1546558494734923993,world,-0.00878394115716,0.0359850935638,0.615562915802,0.0326970741153,0.063520103693,-0.0196939222515,-0.997250378132
1546558494735313879,75,1546558494734975453,world,-0.00854287389666,0.0359280444682,0.61598867178,0.0402270555496,0.0593894124031,-0.0207131039351,-0.997208893299
1546558494745771938,76,1546558494745364386,world,-0.00845267623663,0.0359768979251,0.615833282471,0.031342215836,0.0533191896975,-0.0223010573536,-0.997836410999
1546558494745892235,77,1546558494745479595,world,-0.00846848916262,0.0360148884356,0.615872144699,0.0270481221378,0.0529583394527,-0.0231606401503,-0.997961640358
1546558494756299505,78,1546558494755910611,world,-0.00834362395108,0.0359368026257,0.616174161434,0.0365888364613,0.0526942834258,-0.0230254232883,-0.997674584389
1546558494756375575,79,1546558494755978712,world,-0.00827084574848,0.0358917191625,0.616364777088,0.0425468347967,0.0528278686106,-0.0227357596159,-0.997437775135
1546558494765716267,80,1546558494765316588,world,-0.0082929180935,0.0359604582191,0.616087138653,0.0336406603456,0.0497221499681,-0.0233769677579,-0.997922599316
1546558494765752750,81,1546558494765375377,world,-0.00848513375968,0.0359560884535,0.615940511227,0.0375694409013,0.0563836470246,-0.0211801920086,-0.99747723341
1546558494776271101,82,1546558494775815034,world,-0.00873962696642,0.0363868176937,0.615795850754,0.0323163382709,0.0669161081314,-0.0204264242202,-0.997025847435
1546558494776420904,83,1546558494775852476,world,-0.00853431876749,0.0361807122827,0.616106331348,0.0397646836936,0.0619858242571,-0.0209671184421,-0.997064232826
1546558494785708600,84,1546558494785204241,world,-0.00847105309367,0.0361410528421,0.615897893906,0.0314950682223,0.0556906051934,-0.0221575740725,-0.997705161572
1546558494785744667,85,1546558494785232755,world,-0.00861546490341,0.0361395776272,0.615595340729,0.02507362701,0.0565277673304,-0.0219894573092,-0.99784386158
1546558494796358577,86,1546558494795792838,world,-0.00851551070809,0.0360994562507,0.615549623966,0.0215570516884,0.051818549633,-0.0230763144791,-0.998157143593
1546558494796376691,87,1546558494795823112,world,-0.00844701193273,0.0360810421407,0.615540981293,0.0197524074465,0.0489605478942,-0.0236348994076,-0.998325705528
1546558494805805197,88,1546558494805400366,world,-0.0083322506398,0.0359613038599,0.615997076035,0.0328542180359,0.050665486604,-0.0232729464769,-0.997903823853
1546558494805869042,89,1546558494805461459,world,-0.0082682184875,0.0358834601939,0.616250514984,0.0407358519733,0.0518357530236,-0.0229756198823,-0.997559905052
1546558494815671210,90,1546558494815318062,world,-0.00848046597093,0.0358670763671,0.616037249565,0.0424011945724,0.0585620440543,-0.0209053382277,-0.997163772583
1546558494815856760,91,1546558494815588867,world,-0.00837130378932,0.035830847919,0.616254508495,0.0461238473654,0.0568659454584,-0.021220870316,-0.997090041637
1546558494825360153,92,1546558494825013310,world,-0.00829304661602,0.0358135066926,0.616414546967,0.0493081025779,0.0561525262892,-0.0215494707227,-0.996971070766
1546558494825413405,93,1546558494825047008,world,-0.00831121858209,0.0359112136066,0.616088807583,0.0376098193228,0.0517955720425,-0.0225702095777,-0.997694015503
1546558494835867687,94,1546558494835393410,world,-0.0082691013813,0.0358711071312,0.616254985332,0.0423880033195,0.0527755282819,-0.0223885700107,-0.997455179691
1546558494836022867,95,1546558494835427813,world,-0.00847737304866,0.0358864441514,0.61605900526,0.0433380194008,0.0586845204234,-0.0206533689052,-0.997121632099
1546558494845489296,96,1546558494845064880,world,-0.00861574243754,0.035886015743,0.615919709206,0.0437106750906,0.062551908195,-0.0193056296557,-0.996897220612
1546558494845519123,97,1546558494845100466,world,-0.00870167929679,0.0359095297754,0.615846812725,0.0440688841045,0.0649723261595,-0.0186243671924,-0.996739566326
1546558494855843795,98,1546558494855636547,world,-0.00848999805748,0.0358655191958,0.616187870502,0.0479676537216,0.0606321208179,-0.0201392825693,-0.99680352211
1546558494856013440,99,1546558494855747115,world,-0.00861067790538,0.035887144506,0.616031289101,0.046618938446,0.0637655481696,-0.0191617254168,-0.996691226959
1546558494865553187,100,1546558494865185543,world,-0.00883422419429,0.0367491580546,0.615688681602,0.0418599545956,0.0734845101833,-0.0199159663171,-0.996218502522
1546558494865574693,101,1546558494865350163,world,-0.00864917878062,0.0365010388196,0.615654349327,0.0325579531491,0.0626260265708,-0.0218416359276,-0.997266709805
1546558494875891460,102,1546558494875705942,world,-0.00846631918103,0.0362451225519,0.61600881815,0.0395957715809,0.0589076280594,-0.0220722164959,-0.997233569622
1546558494876121110,103,1546558494875772859,world,-0.00834675505757,0.0360790751874,0.616271317005,0.0442401356995,0.0565480925143,-0.0222217068076,-0.997171700001
1546558494885459242,104,1546558494885184276,world,-0.00827051699162,0.0359691083431,0.616410970688,0.0469175204635,0.0550576783717,-0.0223253648728,-0.997130453587
1546558494885480491,105,1546558494885254618,world,-0.00823489762843,0.0359034910798,0.61651968956,0.0488785617054,0.0544381700456,-0.0223042331636,-0.997070729733
1546558494895945014,106,1546558494895660768,world,-0.00819835066795,0.0358619689941,0.616587519646,0.0506587028503,0.0538479723036,-0.0223911609501,-0.997012019157
1546558494896142309,107,1546558494895827757,world,-0.00851552002132,0.0359233766794,0.616300940514,0.0487099513412,0.0626024380326,-0.0203411001712,-0.996641635895
1546558494905410612,108,1546558494905183106,world,-0.00838873721659,0.0358634218574,0.616420924664,0.0497035458684,0.0591479241848,-0.0210564434528,-0.996788680553
1546558494905542750,109,1546558494905275529,world,-0.00831672921777,0.0358409918845,0.616498112679,0.0501152947545,0.0567754209042,-0.0214158538729,-0.996898412704
1546558494915936451,110,1546558494915693328,world,-0.0082595795393,0.0358314439654,0.616551935673,0.0506390854716,0.0554194450378,-0.0218431837857,-0.996938943863
1546558494916010281,111,1546558494915750517,world,-0.00822465308011,0.0358165837824,0.616606414318,0.0512010231614,0.0547251962125,-0.0220777727664,-0.996943473816
1546558494925360349,112,1546558494925153133,world,-0.00833633635193,0.03592056036,0.616329014301,0.0393261350691,0.0538322329521,-0.0229788124561,-0.997510671616
1546558494925433987,113,1546558494925215442,world,-0.00853132735938,0.0359262079,0.616086483002,0.040388725698,0.0593002587557,-0.0207349807024,-0.997207283974
1546558494935865835,114,1546558494935651387,world,-0.00840177480131,0.0358691997826,0.616263568401,0.0443969517946,0.0573080927134,-0.0213325731456,-0.997140705585
1546558494935957107,115,1546558494935713984,world,-0.00833618734032,0.035847146064,0.616367042065,0.0469830334187,0.0564362518489,-0.0214390940964,-0.997069716454
1546558494945271012,116,1546558494945100823,world,-0.00862024072558,0.0359265357256,0.616137087345,0.0458125919104,0.0643272846937,-0.0197254940867,-0.996681571007
1546558494945332521,117,1546558494945163548,world,-0.00846785586327,0.0358840711415,0.616314768791,0.0479136705399,0.0602037757635,-0.0206310283393,-0.996822059155
1546558494955709325,118,1546558494955513662,world,-0.00865498557687,0.0363240689039,0.616110801697,0.0380746722221,0.0658149793744,-0.0199605152011,-0.996905446053
1546558494955767922,119,1546558494955579459,world,-0.00870297010988,0.0370505899191,0.615643084049,0.0362314917147,0.0723848566413,-0.016490643844,-0.996582090855
1546558494965142792,120,1546558494964939800,world,-0.00876219198108,0.0375055857003,0.615295052528,0.0356244295835,0.0765921622515,-0.0147317452356,-0.996317028999
1546558494965207213,121,1546558494964989180,world,-0.00878913234919,0.0377392657101,0.61505395174,0.0366454944015,0.0779398456216,-0.0158240757883,-0.996158659458
1546558494975516012,122,1546558494975369312,world,-0.00887081213295,0.0379511117935,0.615029335022,0.0354081280529,0.0817141532898,-0.015099725686,-0.995912253857
1546558494975624308,123,1546558494975424613,world,-0.00885425694287,0.0371515452862,0.615254819393,0.0383288525045,0.0765845179558,-0.0161232631654,-0.996195673943
1546558494985060047,124,1546558494984748663,world,-0.00888280384243,0.0370859205723,0.61548435688,0.0325784571469,0.0750994309783,-0.017225112766,-0.996494889259
1546558494985101971,125,1546558494984824765,world,-0.00861195009202,0.0365413203835,0.615909218788,0.0391510687768,0.0660027861595,-0.0193558074534,-0.996863126755
1546558494995342220,126,1546558494995189568,world,-0.00850869435817,0.036304615438,0.615804672241,0.0308829825372,0.0571441911161,-0.0215385500342,-0.997655689716
1546558494995402225,127,1546558494995246533,world,-0.0086076380685,0.0360960103571,0.615807712078,0.035862095654,0.0601950511336,-0.0203365143389,-0.997334957123
1546558495005724496,128,1546558495005577541,world,-0.00843394827098,0.0359211340547,0.616106450558,0.0415232442319,0.0568082481623,-0.0212586522102,-0.997294783592
1546558495005932896,129,1546558495005627913,world,-0.00831856764853,0.0358175262809,0.616315543652,0.0454798638821,0.0547261685133,-0.0218812730163,-0.997225105762
1546558495015211215,130,1546558495014965948,world,-0.00829102937132,0.0358267240226,0.616201102734,0.0403052307665,0.051567979157,-0.0223554242402,-0.997605383396
1546558495015315959,131,1546558495015063139,world,-0.00830619689077,0.0358695536852,0.61596852541,0.0315099991858,0.0483774356544,-0.0231940485537,-0.998062491417
1546558495025628309,132,1546558495025417317,world,-0.00825958978385,0.0358111560345,0.616213858128,0.039051502943,0.049954302609,-0.0229701288044,-0.997723340988
1546558495025652215,133,1546558495025468873,world,-0.0084626711905,0.0358289219439,0.616063296795,0.0412748716772,0.0564563944936,-0.0210226029158,-0.997330009937
1546558495034977193,134,1546558495034724342,world,-0.00841926317662,0.0358873605728,0.615891098976,0.0322990640998,0.0519760400057,-0.0223932545632,-0.997874677181
1546558495035079121,135,1546558495034782938,world,-0.00856425147504,0.0358822531998,0.615818440914,0.0364101156592,0.0577020309865,-0.0206254534423,-0.997456490993
1546558495045305449,136,1546558495045153245,world,-0.00842181500047,0.0358575992286,0.616128265858,0.0424582287669,0.0561343058944,-0.0210706181824,-0.997297525406
1546558495045358157,137,1546558495045214722,world,-0.00832518842071,0.0358205065131,0.6163392663,0.0462789125741,0.0551190003753,-0.0214770026505,-0.997175574303
1546558495055858010,138,1546558495055561827,world,-0.00826315768063,0.0358114056289,0.616484701633,0.0489795543253,0.0546035803854,-0.0218445956707,-0.997066915035
1546558495055884188,139,1546558495055590885,world,-0.00821570586413,0.0357871949673,0.61659514904,0.051116488874,0.0542376153171,-0.022299926728,-0.996969521046
1546558495065023551,140,1546558495064767116,world,-0.00818703323603,0.0357835665345,0.61665558815,0.052090972662,0.0542188324034,-0.0225019175559,-0.996915578842
1546558495065043809,141,1546558495064841905,world,-0.00825022254139,0.0358824208379,0.616227149963,0.0385846011341,0.0506956242025,-0.0233232453465,-0.997696042061
1546558495075352703,142,1546558495075191123,world,-0.00823846738786,0.035851534456,0.616305828094,0.0427472144365,0.0521079823375,-0.0228673815727,-0.997464120388
1546558495075373793,143,1546558495075238038,world,-0.00823438260704,0.0358367376029,0.616410195827,0.0458580218256,0.0532244816422,-0.0225246828049,-0.997274756432
1546558495085730787,144,1546558495085555189,world,-0.00821876805276,0.0358203090727,0.616489470005,0.0481065027416,0.0534603223205,-0.0223358199,-0.997160434723
1546558495085806249,145,1546558495085606937,world,-0.00819668639451,0.0358291901648,0.616568982601,0.0499509200454,0.0538750179112,-0.0224676262587,-0.99704438448
1546558495095191199,146,1546558495094949868,world,-0.00826861243695,0.035916633904,0.61618822813,0.0372675769031,0.0504557713866,-0.0231760982424,-0.997761547565
1546558495095272549,147,1546558495095037043,world,-0.00850026123226,0.0359198115766,0.615967929363,0.0389688648283,0.0573893338442,-0.0209637377411,-0.997370779514
1546558495105565250,148,1546558495105410582,world,-0.00846117455512,0.0359925217927,0.615786790848,0.0301534943283,0.0530047751963,-0.0221917741001,-0.997892141342
1546558495105617478,149,1546558495105457274,world,-0.00869578588754,0.0360148064792,0.615757524967,0.0351226776838,0.0624630339444,-0.0202014110982,-0.997224509716
1546558495114887316,150,1546558495114751018,world,-0.00863418821245,0.036036811769,0.615815520287,0.0294879972935,0.0591832660139,-0.0218831449747,-0.997571587563
1546558495114979195,151,1546558495114797485,world,-0.00854579359293,0.0360272042453,0.615701973438,0.0242313332856,0.053766399622,-0.0229971632361,-0.997994542122
1546558495125369984,152,1546558495125155471,world,-0.00841280259192,0.0359475985169,0.616061687469,0.0347011126578,0.0539650321007,-0.0227195173502,-0.997681081295
1546558495125476008,153,1546558495125206803,world,-0.00856550503522,0.0359411947429,0.615925490856,0.0382950529456,0.0596133172512,-0.0207433924079,-0.997271060944
1546558495135772869,154,1546558495135573334,world,-0.00842377822846,0.0358865782619,0.616192519665,0.0441228672862,0.0577447488904,-0.0212078429759,-0.997130453587
1546558495135792327,155,1546558495135600600,world,-0.00832831766456,0.035832516849,0.616342961788,0.0469767674804,0.0559570454061,-0.0215961225331,-0.997093677521
1546558495145125401,156,1546558495144916937,world,-0.00860108062625,0.0359075628221,0.616103410721,0.0463810190558,0.0640790760517,-0.0198139678687,-0.996669590473
1546558495145155548,157,1546558495144975182,world,-0.00869078747928,0.0359079614282,0.615907251835,0.0451972074807,0.0659085959196,-0.0189271569252,-0.996621847153
1546558495155500509,158,1546558495155310062,world,-0.00850600656122,0.0358583554626,0.616184532642,0.0482041724026,0.0616629980505,-0.0200964193791,-0.996729850769
1546558495155587523,159,1546558495155369010,world,-0.00838257838041,0.0358323901892,0.616369605064,0.0500972978771,0.0587093234062,-0.0208910871297,-0.996798396111
1546558495165886881,160,1546558495165741077,world,-0.00828473921865,0.0358241796494,0.616520524025,0.0512369908392,0.0563196614385,-0.0217096153647,-0.996860861778
1546558495166019147,161,1546558495165810907,world,-0.00850117392838,0.0359500274062,0.615961074829,0.0369247719646,0.057061009109,-0.0216046050191,-0.99745374918
1546558495175312186,162,1546558495175184369,world,-0.00862645264715,0.0359443761408,0.615855813026,0.0393482260406,0.0614700242877,-0.020079895854,-0.997130870819
1546558495175380512,163,1546558495175237813,world,-0.00845584273338,0.0359117910266,0.616147994995,0.0438707284629,0.0583049803972,-0.0207283124328,-0.997119009495
1546558495185773892,164,1546558495185576149,world,-0.0083517935127,0.0358861163259,0.616295516491,0.0465064048767,0.0562410503626,-0.021121269092,-0.997109889984
1546558495185797926,165,1546558495185659612,world,-0.00834453944117,0.0359647534788,0.616027295589,0.0352971032262,0.051430888474,-0.0225623119622,-0.997797489166
1546558495195164411,166,1546558495194971341,world,-0.00853982008994,0.0360322035849,0.615663707256,0.0265143625438,0.053647339344,-0.0222484860569,-0.997959852219
1546558495195363659,167,1546558495195220768,world,-0.00847528129816,0.0360425338149,0.615607440472,0.0224361363798,0.0504309311509,-0.0230940766633,-0.998208403587
1546558495205674729,168,1546558495205530814,world,-0.00837185140699,0.0359616167843,0.615979969501,0.0335515961051,0.05186913535,-0.0227676294744,-0.99783039093
1546558495205738158,169,1546558495205592547,world,-0.00854492001235,0.0359487682581,0.615871250629,0.0373056270182,0.0580477118492,-0.02067101188,-0.997402429581
1546558495215128709,170,1546558495214898323,world,-0.00865670386702,0.0359362252057,0.615792036057,0.0397366285324,0.0621378049254,-0.0194542650133,-0.997086524963
1546558495215194890,171,1546558495214974905,world,-0.00854593422264,0.035997312516,0.615690052509,0.0312333274633,0.0557010024786,-0.0213405005634,-0.997730731964
1546558495225417346,172,1546558495225271991,world,-0.00865661166608,0.035956081003,0.615705907345,0.0366208702326,0.0610634312034,-0.0198775865138,-0.997263848782
1546558495225485479,173,1546558495225317338,world,-0.00881090760231,0.035971082747,0.61573523283,0.0403460264206,0.0672716796398,-0.0186754092574,-0.996743679047
1546558495235861226,174,1546558495235675484,world,-0.00881633441895,0.0359512381256,0.615736603737,0.0419434830546,0.0681157931685,-0.0182323381305,-0.996628701687
1546558495235900557,175,1546558495235720287,world,-0.00859204307199,0.0358999632299,0.616061627865,0.0457518920302,0.0630117878318,-0.019541984424,-0.996771991253
1546558495245216831,176,1546558495245051602,world,-0.00842119380832,0.0358628071845,0.616295337677,0.0483209565282,0.0592792779207,-0.0206689443439,-0.996857047081
1546558495245238208,177,1546558495245102454,world,-0.00832076277584,0.0358289703727,0.616425454617,0.0496059469879,0.0566018484533,-0.0213610809296,-0.996934950352
1546558495255803058,178,1546558495255582721,world,-0.00837588589638,0.0359175279737,0.616249203682,0.0388569906354,0.0551554039121,-0.0227258205414,-0.997462630272
1546558495255825140,179,1546558495255611172,world,-0.00842977128923,0.03598767519,0.616109490395,0.0313483886421,0.0543663091958,-0.0234071072191,-0.997754395008
1546558495265309266,180,1546558495264931765,world,-0.00858165696263,0.0359615199268,0.615961790085,0.0359116159379,0.0599166192114,-0.0212902408093,-0.997330069542
1546558495265382936,181,1546558495264997562,world,-0.00876870099455,0.0359950251877,0.615905284882,0.0397277362645,0.066529341042,-0.0195722021163,-0.996801197529
1546558495275613680,182,1546558495275337787,world,-0.00854165200144,0.035922203213,0.616200149059,0.0447352975607,0.0620297119021,-0.0205056779087,-0.996860444546
1546558495275691478,183,1546558495275377502,world,-0.0086548179388,0.0360031053424,0.615751087666,0.0329881832004,0.0602946318686,-0.0209925919771,-0.997414410114
1546558495285990996,184,1546558495285702717,world,-0.00847111269832,0.0359181053936,0.616076350212,0.0401677116752,0.0578615777194,-0.021417375654,-0.997286260128
1546558495286035767,185,1546558495285749729,world,-0.00838997401297,0.0358748212457,0.61650031805,0.0468029975891,0.0588500313461,-0.0221062935889,-0.996924042702
1546558495295321542,186,1546558495295164954,world,-0.00829396117479,0.035841036588,0.616566777229,0.0492006801069,0.0564317628741,-0.0222177878022,-0.996945917606
1546558495295370410,187,1546558495295214494,world,-0.00848491396755,0.0358641706407,0.616255104542,0.047226332128,0.0610450580716,-0.0204786490649,-0.996806800365
1546558495305725644,188,1546558495305542653,world,-0.00836658570915,0.0358484536409,0.616409242153,0.0492900386453,0.0582250058651,-0.0210691373795,-0.996863305569
1546558495305748493,189,1546558495305592513,world,-0.00853479653597,0.0358741059899,0.616143763065,0.0471317283809,0.0618351511657,-0.0199013873935,-0.996774315834
1546558495315164742,190,1546558495314932660,world,-0.00839639268816,0.0358549356461,0.616346001625,0.049178391695,0.058744981885,-0.0208573415875,-0.996842741966
1546558495315302769,191,1546558495315079264,world,-0.00856238417327,0.0358712412417,0.616079568863,0.0468675866723,0.0620493888855,-0.0195597466081,-0.996780157089
1546558495325541258,192,1546558495325320441,world,-0.00867842324078,0.0359776616096,0.615670442581,0.0335590578616,0.0608007647097,-0.0203370917588,-0.9973782897
1546558495325653650,193,1546558495325365500,world,-0.00849850382656,0.0359147414565,0.616029262543,0.0402234457433,0.0581143163145,-0.0210782326758,-0.997276544571
1546558495335926734,194,1546558495335644440,world,-0.0083666164428,0.035868819803,0.616263270378,0.044540990144,0.0562096424401,-0.0217869654298,-0.997187077999
1546558495335972209,195,1546558495335701564,world,-0.00853317789733,0.0358811430633,0.616083621979,0.0447320528328,0.0609247013927,-0.0202531311661,-0.996933877468
1546558495345342311,196,1546558495345034575,world,-0.00844772532582,0.0358538366854,0.616471409798,0.0491961911321,0.0613279268146,-0.0212100036442,-0.996678829193
1546558495345362248,197,1546558495345112693,world,-0.00859497115016,0.0358769893646,0.616153299809,0.0467329397798,0.0641813352704,-0.019787851721,-0.996647059917
1546558495355784367,198,1546558495355481688,world,-0.00850596278906,0.0359657295048,0.615927040577,0.0353165753186,0.0568783134222,-0.0215896964073,-0.997522652149
1546558495355880311,199,1546558495355575647,world,-0.00839160010219,0.0359178893268,0.616192400455,0.041656665504,0.0555124208331,-0.0216614063829,-0.997353494167
1546558495364963158,200,1546558495364763847,world,-0.0085491174832,0.03590901196,0.616010785103,0.0421849004924,0.0600778199732,-0.0201348848641,-0.997098624706
1546558495365047453,201,1546558495364815979,world,-0.00840147770941,0.0358719192445,0.616250932217,0.0457020998001,0.0573525093496,-0.0210981275886,-0.997084200382
1546558495375306327,202,1546558495375123689,world,-0.00856437627226,0.0358732901514,0.616022348404,0.0444174483418,0.061498016119,-0.0198474805802,-0.99692094326
1546558495375393150,203,1546558495375185293,world,-0.00841125007719,0.0358565896749,0.616275966167,0.0474846176803,0.0584136284888,-0.0209169574082,-0.996943175793
1546558495385675322,204,1546558495385531566,world,-0.0083196349442,0.0358412489295,0.616411685944,0.0492548160255,0.0565616302192,-0.0215583071113,-0.99695032835
1546558495385723389,205,1546558495385585971,world,-0.00826909579337,0.035831246525,0.616491436958,0.0502459034324,0.0550536699593,-0.0217961911112,-0.996980249882
1546558495395074065,206,1546558495394869858,world,-0.00857080519199,0.0359047427773,0.616204202175,0.0479891039431,0.0632446557283,-0.0200150925666,-0.996642649174
1546558495395148503,207,1546558495394935431,world,-0.00841876957566,0.035866625607,0.616400659084,0.0498665869236,0.0599621720612,-0.0209121089429,-0.996735036373
1546558495405445428,208,1546558495405305097,world,-0.00857902411371,0.0358806811273,0.616134941578,0.0475652329624,0.0635689646006,-0.0197086203843,-0.996648490429
1546558495405541884,209,1546558495405382479,world,-0.00876519735903,0.0359392501414,0.615988612175,0.0464020781219,0.0689583644271,-0.0186817422509,-0.99636477232
1546558495415814423,210,1546558495415674316,world,-0.00855570379645,0.0358853116632,0.61620259285,0.0482686758041,0.0634334087372,-0.0200423318893,-0.996616661549
1546558495415893373,211,1546558495415726512,world,-0.00841125845909,0.0358501002192,0.616359353065,0.0490699596703,0.0595548078418,-0.0210045855492,-0.996796965599
1546558495425135913,212,1546558495425004383,world,-0.0085621830076,0.0358636826277,0.616105079651,0.0464942231774,0.0625403299928,-0.0198017545044,-0.996762216091
1546558495425226544,213,1546558495425048354,world,-0.00866057351232,0.0358872264624,0.615953087807,0.0452013723552,0.0641142651439,-0.0189320612699,-0.996738672256
1546558495435517549,214,1546558495435339487,world,-0.00872268807143,0.0359072946012,0.615847766399,0.0443537272513,0.0655272379518,-0.0184404626489,-0.996694087982
1546558495435540334,215,1546558495435407236,world,-0.00851293373853,0.0358877778053,0.616141200066,0.0463816076517,0.0605386681855,-0.0198541842401,-0.99689000845
1546558495445848556,216,1546558495445699425,world,-0.00866715144366,0.0363568402827,0.616016626358,0.0372461490333,0.0654951557517,-0.0193948876113,-0.996968924999
1546558495445919858,217,1546558495445753573,world,-0.00880588032305,0.0370286405087,0.615579724312,0.0351908318698,0.0743814110756,-0.0173391476274,-0.996457874775
1546558495455423378,218,1546558495455085080,world,-0.00889868661761,0.0374477282166,0.615305602551,0.0339492373168,0.0797274038196,-0.0159665737301,-0.99611055851
1546558495455495319,219,1546558495455111514,world,-0.00861175637692,0.0368130579591,0.615851223469,0.0414574928582,0.0700010210276,-0.0185308158398,-0.996512770653
1546558495465482941,220,1546558495465295854,world,-0.0088156722486,0.0369036197662,0.615764915943,0.0342071577907,0.0750756189227,-0.019069198519,-0.996408522129
1546558495465560931,221,1546558495465366132,world,-0.00880312081426,0.0373386070132,0.615391671658,0.0358673781157,0.0765569955111,-0.0187173504382,-0.996244132519
1546558495475782522,222,1546558495475593643,world,-0.00879329349846,0.037647664547,0.615179657936,0.0356411524117,0.0787002146244,-0.0162427052855,-0.996128618717
1546558495475866593,223,1546558495475650896,world,-0.00878256931901,0.0377966426313,0.615055680275,0.0366094782948,0.0785191655159,-0.0168672222644,-0.996097385883
1546558495485153040,224,1546558495484915357,world,-0.00879296846688,0.0370648987591,0.615303516388,0.0388899557292,0.0739628002048,-0.0171135347337,-0.9963555336
1546558495485195891,225,1546558495484946240,world,-0.00855276919901,0.0365286581218,0.615827262402,0.0436089746654,0.0656522363424,-0.0190945230424,-0.996706366539
1546558495495478575,226,1546558495495304194,world,-0.00863048993051,0.0362324975431,0.615827858448,0.0438057333231,0.0653553083539,-0.0188587978482,-0.996721684933
1546558495495550549,227,1546558495495360518,world,-0.00843148864806,0.0359871871769,0.616188168526,0.0477573610842,0.0600508898497,-0.0205026865005,-0.996841430664
1546558495505833969,228,1546558495505688998,world,-0.0086551643908,0.0359341204166,0.616057932377,0.0465013869107,0.0656845867634,-0.019479194656,-0.996565937996
1546558495505900790,229,1546558495505735785,world,-0.00846095941961,0.0358286648989,0.616310358047,0.0485782139003,0.0604165866971,-0.0206628404558,-0.996776401997
1546558495515225160,230,1546558495515071836,world,-0.00833887513727,0.035759806633,0.616469442844,0.0500249490142,0.0572093985975,-0.0215783119202,-0.996874630451
1546558495515291085,231,1546558495515121600,world,-0.00832032319158,0.0357294268906,0.616760969162,0.053132224828,0.0581084005535,-0.0222836490721,-0.996646344662
1546558495525599563,232,1546558495525440319,world,-0.00850982777774,0.035752646625,0.616385161877,0.0497977808118,0.0617687143385,-0.020749585703,-0.99663156271
1546558495525691954,233,1546558495525493859,world,-0.00836692657322,0.0357420630753,0.616526842117,0.0510983280838,0.0578483343124,-0.0215107947588,-0.996784806252
1546558495534953503,234,1546558495534760816,world,-0.00828175153583,0.0357369109988,0.616600215435,0.051589909941,0.0557893291116,-0.0219295285642,-0.996867656708
1546558495534982562,235,1546558495534802708,world,-0.00848729349673,0.0357700847089,0.616249918938,0.04815332219,0.0599874779582,-0.0204036459327,-0.996828258038
1546558495545306273,236,1546558495545150293,world,-0.00835866015404,0.0357595793903,0.616450607777,0.0502474345267,0.0575469583273,-0.0213763341308,-0.996848404408
1546558495545669501,237,1546558495545466317,world,-0.0083381133154,0.0357750654221,0.61672359705,0.0526162907481,0.0587381981313,-0.0218456424773,-0.996646463871
1546558495556039872,238,1546558495555788813,world,-0.00827355217189,0.0357828661799,0.616698622704,0.0520392432809,0.0568401031196,-0.0221744570881,-0.996779620647
1546558495556119430,239,1546558495555893717,world,-0.00824758782983,0.0357872284949,0.616682052612,0.0515905171633,0.0554661788046,-0.0220658499748,-0.996882677078
1546558495565563393,240,1546558495565247849,world,-0.0082245785743,0.0357922911644,0.616646170616,0.0514302439988,0.0547358095646,-0.022076157853,-0.99693107605
1546558495565586819,241,1546558495565378003,world,-0.00845318287611,0.0358238257468,0.616280734539,0.0481306426227,0.0598299540579,-0.0205179806799,-0.996836483479
1546558495575911907,242,1546558495575687953,world,-0.00836112722754,0.0358413159847,0.616386771202,0.0488292984664,0.0578007623553,-0.0211243722588,-0.996909499168
1546558495575947365,243,1546558495575785881,world,-0.00828813295811,0.035827729851,0.616513252258,0.0503689907491,0.056059025228,-0.0217557046562,-0.996918797493
1546558495585335932,244,1546558495585095562,world,-0.00824712496251,0.0358290039003,0.616558432579,0.0505800843239,0.0550988800824,-0.022040694952,-0.996955394745
1546558495585361758,245,1546558495585174608,world,-0.00823181308806,0.0358246229589,0.616572916508,0.0509389936924,0.0548232980072,-0.0220492053777,-0.996952116489
1546558495595711263,246,1546558495595508720,world,-0.0084694493562,0.0358616895974,0.616245627403,0.04818373546,0.0603270307183,-0.0203208830208,-0.996808052063
1546558495595736481,247,1546558495595579797,world,-0.00836577266455,0.0358491279185,0.616385221481,0.0492030754685,0.0577535144985,-0.0211006756872,-0.996894359589
1546558495605084885,248,1546558495604877189,world,-0.00829451344907,0.0358408689499,0.616481840611,0.0502999313176,0.0563130415976,-0.0214916393161,-0.996913731098
1546558495605165499,249,1546558495604944650,world,-0.00851549766958,0.0358662456274,0.616150736809,0.0472268089652,0.0609448999166,-0.019878314808,-0.996825039387
1546558495615477114,250,1546558495615227815,world,-0.00864232704043,0.0358838550746,0.61597019434,0.0458256341517,0.0641796886921,-0.0190705079585,-0.996703326702
1546558495615498972,251,1546558495615300972,world,-0.00847304239869,0.0358513370156,0.616223156452,0.047906704247,0.0601422041655,-0.0203397460282,-0.996832132339
1546558495625836892,252,1546558495625594345,world,-0.00861710868776,0.0358792841434,0.616014838219,0.0457040295005,0.0633941367269,-0.0192872155458,-0.996755003929
1546558495625891232,253,1546558495625669743,world,-0.00847166776657,0.0358603186905,0.616221129894,0.0474511682987,0.060277082026,-0.0202330313623,-0.996847987175
1546558495635177775,254,1546558495634960670,world,-0.00840719696134,0.0358553379774,0.616599619389,0.051389798522,0.0610289610922,-0.0213212929666,-0.996584236622
1546558495635235636,255,1546558495634992705,world,-0.0083274487406,0.0358550921082,0.616626918316,0.0516414828598,0.0583366453648,-0.0216483045369,-0.996725380421
1546558495645562131,256,1546558495645306911,world,-0.0082724057138,0.0358304418623,0.616634488106,0.0512881428003,0.056398846209,-0.0220548789948,-0.996846199036
1546558495645642137,257,1546558495645366980,world,-0.00857102777809,0.0359112471342,0.616318821907,0.0490275584161,0.0644311532378,-0.020066479221,-0.996515154839
1546558495655932694,258,1546558495655708741,world,-0.00876327138394,0.035943813622,0.616117954254,0.0478068105876,0.0695958435535,-0.0189026352018,-0.996249854565
1546558495656007132,259,1546558495655772842,world,-0.00854297820479,0.0359026677907,0.616300523281,0.0489720366895,0.0635882616043,-0.0202131737024,-0.996569037437
1546558495665321165,260,1546558495665070554,world,-0.00840199086815,0.0358753092587,0.616418778896,0.0494224950671,0.0594890937209,-0.0209791362286,-0.996783971786
1546558495665356432,261,1546558495665134783,world,-0.00830519851297,0.0358557961881,0.616533339024,0.0504732877016,0.056902911514,-0.0215824302286,-0.996869444847
1546558495675743604,262,1546558495675486624,world,-0.00825623143464,0.0358408279717,0.616577982903,0.050768442452,0.0552936606109,-0.0220275688916,-0.996935367584
1546558495675810009,263,1546558495675587752,world,-0.00822464562953,0.0358268991113,0.616621434689,0.0515173375607,0.0546104945242,-0.022133750841,-0.996932268143
1546558495685080071,264,1546558495684900953,world,-0.00822065211833,0.0358198285103,0.616603314877,0.0510697700083,0.0543209798634,-0.0220287945122,-0.996973335743
1546558495685130411,265,1546558495684933307,world,-0.00819843355566,0.0358112826943,0.616630852222,0.051351737231,0.0540378317237,-0.0223233997822,-0.996967732906
1546558495695396550,266,1546558495695215127,world,-0.00819697976112,0.0358118228614,0.616630017757,0.0513409376144,0.0540129765868,-0.0222862903029,-0.99697047472
1546558495695462251,267,1546558495695294654,world,-0.00844712462276,0.0358577333391,0.616242706776,0.0473997071385,0.0589966066182,-0.0204103272408,-0.996923387051
1546558495705844238,268,1546558495705657312,world,-0.00835215672851,0.0358373448253,0.616380810738,0.0486689396203,0.05713352561,-0.0211147014052,-0.996956050396
1546558495705938486,269,1546558495705722917,world,-0.00830245763063,0.0358175002038,0.616468906403,0.0500399693847,0.0561707690358,-0.0215173754841,-0.996934294701
1546558495715358767,270,1546558495715182689,world,-0.00826802663505,0.0358146429062,0.616521418095,0.0503489859402,0.055400993675,-0.0217244494706,-0.996957361698
1546558495715539997,271,1546558495715321164,world,-0.00823746901006,0.0357898660004,0.616588592529,0.0511947907507,0.0549310557544,-0.0220232810825,-0.996933698654
1546558495725812856,272,1546558495725635723,world,-0.00822275131941,0.0358165577054,0.616599917412,0.0509911701083,0.054739702493,-0.0220170002431,-0.996954739094
1546558495725874141,273,1546558495725694383,world,-0.00821860413998,0.0358158946037,0.616601765156,0.0511502623558,0.0546077527106,-0.021947350353,-0.996955394745
1546558495735231378,274,1546558495734966333,world,-0.00821690633893,0.0358163416386,0.616600334644,0.0508620664477,0.0543589405715,-0.0220706872642,-0.996981024742
1546558495735260116,275,1546558495735091751,world,-0.00845573656261,0.0358382053673,0.616241633892,0.0481256209314,0.0601432360709,-0.0204635057598,-0.996818959713
1546558495745612949,276,1546558495745437800,world,-0.00836834404618,0.0358167551458,0.616355717182,0.0488947033882,0.0580244250596,-0.0210766475648,-0.996894359589
1546558495745695324,277,1546558495745513742,world,-0.00829628761858,0.0358164720237,0.61648619175,0.0502977780998,0.0565023198724,-0.0216854345053,-0.996898889542
1546558495754988907,278,1546558495754778331,world,-0.00850707106292,0.0358426198363,0.616161882877,0.0473837256432,0.0612582974136,-0.0201312359422,-0.99679338932
1546558495755038223,279,1546558495754868482,world,-0.00840183347464,0.0358283445239,0.616292893887,0.0485190674663,0.0590880326927,-0.020840972662,-0.996855199337
1546558495765370767,280,1546558495765154078,world,-0.00833835918456,0.0358375832438,0.616400778294,0.0491067543626,0.0572359971702,-0.0212398283184,-0.99692606926
1546558495765444469,281,1546558495765229380,world,-0.00853309687227,0.0358561761677,0.616117596626,0.0466886050999,0.0617889612913,-0.0198154691607,-0.996799707413
1546558495775749427,282,1546558495775507936,world,-0.00840686261654,0.0358496494591,0.616301894188,0.0483281165361,0.0590646192431,-0.0206971559674,-0.996868848801
1546558495775783093,283,1546558495775555332,world,-0.00857924763113,0.0358882322907,0.616068422794,0.0461896508932,0.0628548115492,-0.0194948036224,-0.996762633324
1546558495785021633,284,1546558495784797551,world,-0.00850468222052,0.0359718464315,0.615846574306,0.034412484616,0.0560743771493,-0.0213323198259,-0.997605323792
1546558495785042754,285,1546558495784851572,world,-0.00838331971318,0.0359053499997,0.616153657436,0.0408681407571,0.0551479421556,-0.0217014364898,-0.997405409813
1546558495795389539,286,1546558495795140080,world,-0.00855252239853,0.0359066985548,0.616007566452,0.0417242497206,0.0604650266469,-0.0200935006142,-0.99709546566
1546558495795411141,287,1546558495795199125,world,-0.00841577257961,0.0358690395951,0.616274058819,0.0459986813366,0.0580689832568,-0.0209375228733,-0.997032463551
1546558495805731108,288,1546558495805494002,world,-0.00832508597523,0.0358339771628,0.616431415081,0.0485553778708,0.0564673729241,-0.0215865578502,-0.996989428997
1546558495805749221,289,1546558495805588441,world,-0.00851571001112,0.0358679257333,0.616143465042,0.0462062694132,0.0610056817532,-0.0199989471585,-0.996866881847
1546558495815045653,290,1546558495814854566,world,-0.00838941149414,0.0358485355973,0.616348862648,0.0487529411912,0.058402787894,-0.0209170281887,-0.996882557869
1546558495815182016,291,1546558495814910987,world,-0.00855454150587,0.035863224417,0.616111934185,0.0471024923027,0.0621368475258,-0.0197818093002,-0.996759295464
1546558495825457371,292,1546558495825281966,world,-0.00840611662716,0.0358498543501,0.616353750229,0.0495323352516,0.0589841268957,-0.0208034459502,-0.996812343597
1546558495825571524,293,1546558495825353907,world,-0.00833453517407,0.0358344577253,0.616451144218,0.0501816123724,0.0571618676186,-0.0213497970253,-0.996874392033
1546558495835837535,294,1546558495835639952,world,-0.00828233640641,0.035841498524,0.616512715816,0.0506070554256,0.0558548271656,-0.0215061809868,-0.996923625469
1546558495835900868,295,1546558495835714742,world,-0.00824571494013,0.0358264669776,0.616576254368,0.0511133223772,0.0552644878626,-0.0217195469886,-0.99692606926
1546558495845123726,296,1546558495844967778,world,-0.00846038199961,0.0358655042946,0.616266191006,0.0483056418598,0.0601369328797,-0.0202637258917,-0.996814727783
1546558495845178066,297,1546558495845018214,world,-0.00860047247261,0.035899464041,0.616048157215,0.0462415851653,0.0632971227169,-0.0192625094205,-0.996736764908
1546558495855467951,298,1546558495855277824,world,-0.00846342556179,0.0358613617718,0.616251528263,0.0480269864202,0.0600913017988,-0.0203190799803,-0.996829807758
1546558495855562550,299,1546558495855348230,world,-0.00835704058409,0.0358454063535,0.616427540779,0.0497321598232,0.0577232390642,-0.0211127363145,-0.996869683266
1546558495865743851,300,1546558495865587934,world,-0.00854561105371,0.0358711779118,0.616136789322,0.046967279166,0.0619732439518,-0.0197279695421,-0.996776998043
1546558495865854259,301,1546558495865646691,world,-0.0084131732583,0.0358404107392,0.616305708885,0.0483129881322,0.0589246973395,-0.0208115894347,-0.996875464916
1546558495875122785,302,1546558495874908848,world,-0.00832345429808,0.0358270555735,0.616444766521,0.049831174314,0.0574985072017,-0.0215062182397,-0.996869266033
1546558495875191590,303,1546558495874975765,world,-0.00851180031896,0.0358622334898,0.616187334061,0.0475312359631,0.0618543997407,-0.0198673270643,-0.996754825115
1546558495885454945,304,1546558495885299637,world,-0.00838520657271,0.0358399227262,0.616364657879,0.0491933785379,0.0590363703668,-0.0210126377642,-0.996821582317
1546558495885597996,305,1546558495885332119,world,-0.00856028590351,0.0358703061938,0.616135895252,0.0470830872655,0.0628622174263,-0.0195683408529,-0.996718943119
1546558495895769951,306,1546558495895608531,world,-0.00867366138846,0.0358715541661,0.615973293781,0.0457224994898,0.0653034970164,-0.018846726045,-0.996639251709
1546558495895851078,307,1546558495895674776,world,-0.00847711786628,0.0358472429216,0.616226017475,0.0478053838015,0.0607815682888,-0.020215485245,-0.996800720692
1546558495905070863,308,1546558495904933509,world,-0.00861393846571,0.0358816385269,0.616038143635,0.0458991415799,0.0637418851256,-0.0191548392177,-0.9967263937
1546558495905144245,309,1546558495904969736,world,-0.00869756843895,0.0359004214406,0.615871787071,0.0440826155245,0.0653742030263,-0.018574103713,-0.996713578701
1546558495915372589,310,1546558495915208800,world,-0.00874326191843,0.0358868129551,0.615801930428,0.0436599105597,0.0665239319205,-0.018300017342,-0.996661186218
1546558495915469941,311,1546558495915283846,world,-0.00878335162997,0.035890493542,0.615766823292,0.0436624214053,0.0674337744713,-0.0178476516157,-0.996608138084
1546558495925698572,312,1546558495925531168,world,-0.00854789465666,0.0358528494835,0.616129994392,0.0471975021064,0.0622368082404,-0.0195126384497,-0.996753931046
1546558495925834295,313,1546558495925594756,world,-0.00841393042356,0.0358194634318,0.616323888302,0.0488519780338,0.059211820364,-0.0206200517714,-0.996836185455
1546558495935054337,314,1546558495934855569,world,-0.00830842368305,0.0358209684491,0.616453111172,0.0497250817716,0.0567216686904,-0.0214609391987,-0.996920049191
1546558495935076643,315,1546558495934914230,world,-0.00848605856299,0.0358569398522,0.61620682478,0.0481167025864,0.061276011169,-0.0201604440808,-0.99675655365
1546558495945379744,316,1546558495945171120,world,-0.00836505927145,0.0358364805579,0.61638212204,0.0493768677115,0.0582390911877,-0.0209866203368,-0.996859908104
1546558495945435685,317,1546558495945233461,world,-0.0085349585861,0.0358706116676,0.616122245789,0.04712343961,0.0621512830257,-0.0196260437369,-0.996760427952
1546558495955770309,318,1546558495955532434,world,-0.00840351451188,0.0358261950314,0.616335272789,0.0492105074227,0.0592869706452,-0.0205951407552,-0.996814608574
1546558495955948403,319,1546558495955609560,world,-0.00831530895084,0.035817887634,0.616479456425,0.0504303537309,0.0570529811084,-0.0214272607118,-0.996866464615
1546558495965068981,320,1546558495964905640,world,-0.00824991893023,0.0358226262033,0.616564869881,0.0513128191233,0.0558023042977,-0.0219397768378,-0.996881067753
1546558495965175613,321,1546558495964954380,world,-0.00846235733479,0.0358713977039,0.616240024567,0.0479895956814,0.0601892359555,-0.0203711315989,-0.99682456255
1546558495975492124,322,1546558495975238312,world,-0.00834998209029,0.0358431525528,0.616422235966,0.0498226359487,0.057568307966,-0.0212054513395,-0.996872127056
1546558495975658057,323,1546558495975348785,world,-0.00828511919826,0.0358364209533,0.616524279118,0.0507211834192,0.0560288392007,-0.0216008499265,-0.996905982494
1546558495985818875,324,1546558495985627948,world,-0.00825406704098,0.0358261242509,0.61651456356,0.0501420721412,0.0550978220999,-0.0217378083616,-0.996984243393
1546558495985890785,325,1546558495985706675,world,-0.00821029860526,0.035817656666,0.616604506969,0.0514068081975,0.0545466281474,-0.022110035643,-0.996941924095
1546558495995298905,326,1546558495995089577,world,-0.00819464214146,0.035819709301,0.616631746292,0.0521274842322,0.0545092858374,-0.0223308689892,-0.996901571751
1546558495995326011,327,1546558495995168975,world,-0.00819439534098,0.0358308814466,0.616638898849,0.051874499768,0.0545897558331,-0.0222504232079,-0.996912181377
1546558496005724480,328,1546558496005541490,world,-0.00818149000406,0.0358070805669,0.616689145565,0.0525430813432,0.0543958060443,-0.0225239768624,-0.996881663799
1546558496005764323,329,1546558496005620696,world,-0.00825427658856,0.0359080731869,0.616231203079,0.0382189750671,0.0508693344891,-0.0233892891556,-0.997699677944
1546558496015156314,330,1546558496014894437,world,-0.00823692977428,0.0358825847507,0.616372227669,0.0432189330459,0.0523125343025,-0.022903393954,-0.997432172298
1546558496015308389,331,1546558496014949258,world,-0.0082236174494,0.0358720086515,0.616479754448,0.0463951788843,0.0529436208308,-0.0226687267423,-0.997261583805
1546558496025414419,332,1546558496025232677,world,-0.00821835920215,0.0358339734375,0.616538882256,0.0486345216632,0.0541012771428,-0.0225121602416,-0.99709635973
1546558496025434453,333,1546558496025303755,world,-0.00846013985574,0.0358413867652,0.616230547428,0.0473158732057,0.0602221786976,-0.0206311512738,-0.996849477291
1546558496035786262,334,1546558496035594727,world,-0.00837087072432,0.0358320139349,0.616362631321,0.0489269457757,0.0582901611924,-0.0211182367057,-0.996876358986
1546558496035873276,335,1546558496035670413,world,-0.00856169126928,0.0358490124345,0.616116940975,0.0472183004022,0.0625945553184,-0.0197487547994,-0.996725857258
1546558496045171692,336,1546558496044930745,world,-0.00842240732163,0.0358295664191,0.616343021393,0.0495790615678,0.0597189776599,-0.0206610653549,-0.996769249439
1546558496045192909,337,1546558496044995326,world,-0.00840809475631,0.0359254665673,0.616040289402,0.0369816720486,0.0542300976813,-0.0222452096641,-0.99759542942
1546558496055543566,338,1546558496055269977,world,-0.00870152097195,0.036380879581,0.615842878819,0.0310920998454,0.0655437707901,-0.0212292764336,-0.997139215469
1546558496055564592,339,1546558496055318941,world,-0.00884707737714,0.037017390132,0.615462005138,0.0321724675596,0.073068395257,-0.0206252112985,-0.996594488621
1546558496066037818,340,1546558496065666781,world,-0.00885790865868,0.0366177670658,0.615537345409,0.0364532768726,0.0716949999332,-0.0193540956825,-0.996572375298
1546558496066061020,341,1546558496065700160,world,-0.00885984208435,0.036337800324,0.615584433079,0.0391662567854,0.070796020329,-0.0183747131377,-0.996552228928
1546558496075418256,342,1546558496074971085,world,-0.00860638357699,0.0361231602728,0.616005420685,0.0443631112576,0.0644425600767,-0.019833644852,-0.996737539768
1546558496075445970,343,1546558496075062580,world,-0.00844009313732,0.0359828993678,0.616272330284,0.0477899797261,0.0604197829962,-0.0207240004092,-0.996812999249
1546558496085625765,344,1546558496085412149,world,-0.00840114429593,0.0360028408468,0.616003215313,0.0358547642827,0.0539752915502,-0.0222256537527,-0.99765086174
1546558496085715180,345,1546558496085499612,world,-0.00837682373822,0.0360137522221,0.615837097168,0.0286369845271,0.0498813800514,-0.0230989549309,-0.998077332973
1546558496095277488,346,1546558496094931253,world,-0.00859128963202,0.0363900624216,0.615815520287,0.0261564925313,0.0588198676705,-0.0215919595212,-0.997692286968
1546558496095339061,347,1546558496095082849,world,-0.0084192501381,0.0361510701478,0.616175115108,0.0367088615894,0.0568531416357,-0.0219389218837,-0.997466206551
1546558496105687989,348,1546558496105393246,world,-0.00831789243966,0.036007348448,0.616381824017,0.0430246032774,0.0555449612439,-0.0220664925873,-0.997284770012
1546558496105733625,349,1546558496105551627,world,-0.00850577931851,0.0359580144286,0.61615306139,0.0440333895385,0.0604116208851,-0.0202342346311,-0.99699652195
1546558496115155186,350,1546558496114849562,world,-0.00838240794837,0.0358678139746,0.616357803345,0.0478610880673,0.0581063255668,-0.0210320316255,-0.996940672398
1546558496115226103,351,1546558496114912991,world,-0.00859644077718,0.0363118350506,0.616149544716,0.0386285930872,0.0644117966294,-0.0202493909746,-0.996969878674
1546558496125524340,352,1546558496125324100,world,-0.00878011528403,0.0369835570455,0.615669429302,0.0365160107613,0.0738714486361,-0.0178476478904,-0.996439218521
1546558496125616603,353,1546558496125400266,world,-0.00861858669668,0.0366436615586,0.615633070469,0.0291164759547,0.0632308349013,-0.020272295922,-0.997368097305
1546558496134971119,354,1546558496134716699,world,-0.00882834754884,0.0368004702032,0.615605831146,0.0267148055136,0.070896551013,-0.0200718846172,-0.996923863888
1546558496134988880,355,1546558496134777824,world,-0.00887005589902,0.0368734523654,0.615667402744,0.0253359340131,0.0720037445426,-0.0195498280227,-0.996890842915
1546558496145446329,356,1546558496145188837,world,-0.00887187942863,0.0365812778473,0.615447759628,0.0208656936884,0.0666853561997,-0.0202949531376,-0.997349381447
1546558496145503549,357,1546558496145249322,world,-0.0086764190346,0.0363478399813,0.61548614502,0.019414557144,0.0579926818609,-0.0219156015664,-0.997887611389
1546558496155873056,358,1546558496155556135,world,-0.00856234598905,0.0361966527998,0.61550617218,0.0187884513289,0.052567165345,-0.0228826925159,-0.998178422451
1546558496155922435,359,1546558496155624716,world,-0.00864425580949,0.0360481515527,0.615640103817,0.0293872691691,0.0582029111683,-0.0209955889732,-0.997651219368
1546558496165246293,360,1546558496165041989,world,-0.00853428151459,0.0360236689448,0.615604281425,0.0250453278422,0.0526923127472,-0.0222484860569,-0.998048782349
1546558496165340892,361,1546558496165086856,world,-0.00862828735262,0.0359353721142,0.615682423115,0.0337241776288,0.058680601418,-0.0205839797854,-0.997494637966
1546558496175749185,362,1546558496175466315,world,-0.00868521444499,0.0358775183558,0.615731179714,0.0387677103281,0.0620406493545,-0.0194036010653,-0.997131705284
1546558496175777347,363,1546558496175524176,world,-0.00855713244528,0.0359141454101,0.61569416523,0.0314257368445,0.055557526648,-0.0214239079505,-0.997730851173
1546558496185168026,364,1546558496184865347,world,-0.0086714066565,0.0359658002853,0.615473270416,0.025418959558,0.0565757602453,-0.021395822987,-0.997845351696
1546558496185187003,365,1546558496185051569,world,-0.00884928740561,0.0363782383502,0.615510642529,0.0251339823008,0.066881492734,-0.0206822510809,-0.997229874134
